Timestamp,header_stamp_sec,header_stamp_nanosec,header_frame_id,poses
1765492332.4995203,25,812000000,map,<array len=793>
1765492333.5505915,26,835000000,map,<array len=826>
1765492334.9329476,28,179000000,map,<array len=602>
1765492335.967208,29,190000000,map,<array len=573>
1765492337.008902,30,204000000,map,<array len=544>
1765492338.038162,31,209000000,map,<array len=490>
1765492339.062841,32,217000000,map,<array len=469>
1765492340.0831614,33,213000000,map,<array len=448>
1765492341.1133912,34,212000000,map,<array len=428>
1765492342.1520085,35,226000000,map,<array len=407>
1765492343.1836412,36,228000000,map,<array len=387>
1765492344.2237535,37,242000000,map,<array len=363>
1765492345.2547946,38,241000000,map,<array len=343>
1765492346.2939339,39,258000000,map,<array len=322>
1765492347.333037,40,278000000,map,<array len=302>
1765492348.3711987,41,277000000,map,<array len=281>
1765492349.4011965,42,267000000,map,<array len=261>
1765492350.4298284,43,269000000,map,<array len=242>
1765492351.449956,44,268000000,map,<array len=223>
1765492352.4895134,45,270000000,map,<array len=509>
1765492353.506902,46,266000000,map,<array len=490>
1765492354.5458841,47,280000000,map,<array len=471>
1765492355.5748258,48,288000000,map,<array len=445>
1765492356.6446142,49,305000000,map,<array len=417>
1765492357.752952,50,337000000,map,<array len=400>
1765492358.8352654,51,405000000,map,<array len=380>
1765492359.8968642,52,458000000,map,<array len=358>
1765492360.9506905,53,487000000,map,<array len=330>
1765492362.003089,54,525000000,map,<array len=320>
1765492363.0729802,55,572000000,map,<array len=302>
1765492364.1482563,56,613000000,map,<array len=284>
1765492365.213401,57,663000000,map,<array len=290>
1765492366.288312,58,710000000,map,<array len=336>
1765492367.3581583,59,748000000,map,<array len=322>
1765492368.4273899,60,789000000,map,<array len=307>
1765492369.4810255,61,824000000,map,<array len=284>
1765492370.5427227,62,859000000,map,<array len=269>
1765492371.6063457,63,894000000,map,<array len=248>
1765492372.6693652,64,929000000,map,<array len=223>
1765492373.7514935,65,973000000,map,<array len=221>
1765492374.8291156,67,14000000,map,<array len=209>
1765492375.909073,68,61000000,map,<array len=184>
1765492376.984343,69,120000000,map,<array len=168>
1765492378.0383563,70,155000000,map,<array len=145>
1765492379.098483,71,184000000,map,<array len=123>
1765492380.1435475,72,207000000,map,<array len=102>
1765492381.1967752,73,236000000,map,<array len=80>
1765492382.2489526,74,259000000,map,<array len=64>
1765492383.3220956,75,276000000,map,<array len=44>
1765492384.3669662,76,299000000,map,<array len=31>
1765492385.4335794,77,334000000,map,<array len=24>
1765492386.4873133,78,366000000,map,"[OrderedDict({'header': OrderedDict({'stamp': OrderedDict({'sec': 78, 'nanosec': 366000000}), 'frame_id': 'map'}), 'pose': OrderedDict({'position': OrderedDict({'x': 8.640899804596051, 'y': 10.793295457713533, 'z': 0.0}), 'orientation': OrderedDict({'x': 0.0, 'y': 0.0, 'z': 0.0, 'w': 1.0})})}), OrderedDict({'header': OrderedDict({'stamp': OrderedDict({'sec': 78, 'nanosec': 366000000}), 'frame_id': 'map'}), 'pose': OrderedDict({'position': OrderedDict({'x': 8.609878685969738, 'y': 10.772738816782216, 'z': 0.0}), 'orientation': OrderedDict({'x': 0.0, 'y': 0.0, 'z': 0.0, 'w': 1.0})})}), OrderedDict({'header': OrderedDict({'stamp': OrderedDict({'sec': 78, 'nanosec': 366000000}), 'frame_id': 'map'}), 'pose': OrderedDict({'position': OrderedDict({'x': 8.596440270242146, 'y': 10.751657273499326, 'z': 0.0}), 'orientation': OrderedDict({'x': 0.0, 'y': 0.0, 'z': 0.0, 'w': 1.0})})}), OrderedDict({'header': OrderedDict({'stamp': OrderedDict({'sec': 78, 'nanosec': 366000000}), 'frame_id': 'map'}), 'pose': OrderedDict({'position': OrderedDict({'x': 8.585469200742727, 'y': 10.729193283906774, 'z': 0.0}), 'orientation': OrderedDict({'x': 0.0, 'y': 0.0, 'z': 0.0, 'w': 1.0})})}), OrderedDict({'header': OrderedDict({'stamp': OrderedDict({'sec': 78, 'nanosec': 366000000}), 'frame_id': 'map'}), 'pose': OrderedDict({'position': OrderedDict({'x': 8.575749351965078, 'y': 10.706161667352639, 'z': 0.0}), 'orientation': OrderedDict({'x': 0.0, 'y': 0.0, 'z': 0.0, 'w': 1.0})})}), OrderedDict({'header': OrderedDict({'stamp': OrderedDict({'sec': 78, 'nanosec': 366000000}), 'frame_id': 'map'}), 'pose': OrderedDict({'position': OrderedDict({'x': 8.566766502710129, 'y': 10.682830978528422, 'z': 0.0}), 'orientation': OrderedDict({'x': 0.0, 'y': 0.0, 'z': 0.0, 'w': 1.0})})}), OrderedDict({'header': OrderedDict({'stamp': OrderedDict({'sec': 78, 'nanosec': 366000000}), 'frame_id': 'map'}), 'pose': OrderedDict({'position': OrderedDict({'x': 8.558065941057043, 'y': 10.659393478179176, 'z': 0.0}), 'orientation': OrderedDict({'x': 0.0, 'y': 0.0, 'z': 0.0, 'w': 1.0})})}), OrderedDict({'header': OrderedDict({'stamp': OrderedDict({'sec': 78, 'nanosec': 366000000}), 'frame_id': 'map'}), 'pose': OrderedDict({'position': OrderedDict({'x': 8.549675132826541, 'y': 10.635843062789185, 'z': 0.0}), 'orientation': OrderedDict({'x': 0.0, 'y': 0.0, 'z': 0.0, 'w': 1.0})})}), OrderedDict({'header': OrderedDict({'stamp': OrderedDict({'sec': 78, 'nanosec': 366000000}), 'frame_id': 'map'}), 'pose': OrderedDict({'position': OrderedDict({'x': 8.54153914637718, 'y': 10.612204146421313, 'z': 0.0}), 'orientation': OrderedDict({'x': 0.0, 'y': 0.0, 'z': 0.0, 'w': 1.0})})}), OrderedDict({'header': OrderedDict({'stamp': OrderedDict({'sec': 78, 'nanosec': 366000000}), 'frame_id': 'map'}), 'pose': OrderedDict({'position': OrderedDict({'x': 8.533937217552966, 'y': 10.588388228097678, 'z': 0.0}), 'orientation': OrderedDict({'x': 0.0, 'y': 0.0, 'z': 0.0, 'w': 1.0})})}), OrderedDict({'header': OrderedDict({'stamp': OrderedDict({'sec': 78, 'nanosec': 366000000}), 'frame_id': 'map'}), 'pose': OrderedDict({'position': OrderedDict({'x': 8.526826621743885, 'y': 10.564422773639002, 'z': 0.0}), 'orientation': OrderedDict({'x': 0.0, 'y': 0.0, 'z': 0.0, 'w': 1.0})})}), OrderedDict({'header': OrderedDict({'stamp': OrderedDict({'sec': 78, 'nanosec': 366000000}), 'frame_id': 'map'}), 'pose': OrderedDict({'position': OrderedDict({'x': 8.520237876528517, 'y': 10.540304731287428, 'z': 0.0}), 'orientation': OrderedDict({'x': 0.0, 'y': 0.0, 'z': 0.0, 'w': 1.0})})}), OrderedDict({'header': OrderedDict({'stamp': OrderedDict({'sec': 78, 'nanosec': 366000000}), 'frame_id': 'map'}), 'pose': OrderedDict({'position': OrderedDict({'x': 8.514108420870775, 'y': 10.516067670379392, 'z': 0.0}), 'orientation': OrderedDict({'x': 0.0, 'y': 0.0, 'z': 0.0, 'w': 1.0})})}), OrderedDict({'header': OrderedDict({'stamp': OrderedDict({'sec': 78, 'nanosec': 366000000}), 'frame_id': 'map'}), 'pose': OrderedDict({'position': OrderedDict({'x': 8.508468772349238, 'y': 10.491711590914896, 'z': 0.0}), 'orientation': OrderedDict({'x': 0.0, 'y': 0.0, 'z': 0.0, 'w': 1.0})})}), OrderedDict({'header': OrderedDict({'stamp': OrderedDict({'sec': 78, 'nanosec': 366000000}), 'frame_id': 'map'}), 'pose': OrderedDict({'position': OrderedDict({'x': 8.503309775690331, 'y': 10.467251751683229, 'z': 0.0}), 'orientation': OrderedDict({'x': 0.0, 'y': 0.0, 'z': 0.0, 'w': 1.0})})}), OrderedDict({'header': OrderedDict({'stamp': OrderedDict({'sec': 78, 'nanosec': 366000000}), 'frame_id': 'map'}), 'pose': OrderedDict({'position': OrderedDict({'x': 8.498672629625139, 'y': 10.442685100926532, 'z': 0.0}), 'orientation': OrderedDict({'x': 0.0, 'y': 0.0, 'z': 0.0, 'w': 1.0})})}), OrderedDict({'header': OrderedDict({'stamp': OrderedDict({'sec': 78, 'nanosec': 366000000}), 'frame_id': 'map'}), 'pose': OrderedDict({'position': OrderedDict({'x': 8.494523764817222, 'y': 10.418029949191954, 'z': 0.0}), 'orientation': OrderedDict({'x': 0.0, 'y': 0.0, 'z': 0.0, 'w': 1.0})})}), OrderedDict({'header': OrderedDict({'stamp': OrderedDict({'sec': 78, 'nanosec': 366000000}), 'frame_id': 'map'}), 'pose': OrderedDict({'position': OrderedDict({'x': 8.490899802360877, 'y': 10.393295451753069, 'z': 0.0}), 'orientation': OrderedDict({'x': 0.0, 'y': 0.0, 'z': 0.0, 'w': 1.0})})}), OrderedDict({'header': OrderedDict({'stamp': OrderedDict({'sec': 78, 'nanosec': 366000000}), 'frame_id': 'map'}), 'pose': OrderedDict({'position': OrderedDict({'x': 8.440899801615819, 'y': 10.34329545100801, 'z': 0.0}), 'orientation': OrderedDict({'x': 0.0, 'y': 0.0, 'z': 0.0, 'w': 1.0})})}), OrderedDict({'header': OrderedDict({'stamp': OrderedDict({'sec': 78, 'nanosec': 366000000}), 'frame_id': 'map'}), 'pose': OrderedDict({'position': OrderedDict({'x': 8.403456125408411, 'y': 10.299473393708467, 'z': 0.0}), 'orientation': OrderedDict({'x': 0.0, 'y': 0.0, 'z': 0.9896855427805595, 'w': 0.14325685467421528})})})]"
1765492387.5323946,79,395000000,map,"[OrderedDict({'header': OrderedDict({'stamp': OrderedDict({'sec': 79, 'nanosec': 395000000}), 'frame_id': 'map'}), 'pose': OrderedDict({'position': OrderedDict({'x': 8.590899803850993, 'y': 10.693295456223417, 'z': 0.0}), 'orientation': OrderedDict({'x': 0.0, 'y': 0.0, 'z': 0.0, 'w': 1.0})})}), OrderedDict({'header': OrderedDict({'stamp': OrderedDict({'sec': 79, 'nanosec': 395000000}), 'frame_id': 'map'}), 'pose': OrderedDict({'position': OrderedDict({'x': 8.577331688414437, 'y': 10.653967452707697, 'z': 0.0}), 'orientation': OrderedDict({'x': 0.0, 'y': 0.0, 'z': 0.0, 'w': 1.0})})}), OrderedDict({'header': OrderedDict({'stamp': OrderedDict({'sec': 79, 'nanosec': 395000000}), 'frame_id': 'map'}), 'pose': OrderedDict({'position': OrderedDict({'x': 8.57109084359488, 'y': 10.629757857620383, 'z': 0.0}), 'orientation': OrderedDict({'x': 0.0, 'y': 0.0, 'z': 0.0, 'w': 1.0})})}), OrderedDict({'header': OrderedDict({'stamp': OrderedDict({'sec': 79, 'nanosec': 395000000}), 'frame_id': 'map'}), 'pose': OrderedDict({'position': OrderedDict({'x': 8.56358657102212, 'y': 10.605911421718169, 'z': 0.0}), 'orientation': OrderedDict({'x': 0.0, 'y': 0.0, 'z': 0.0, 'w': 1.0})})}), OrderedDict({'header': OrderedDict({'stamp': OrderedDict({'sec': 79, 'nanosec': 395000000}), 'frame_id': 'map'}), 'pose': OrderedDict({'position': OrderedDict({'x': 8.554983665620489, 'y': 10.582437300274627, 'z': 0.0}), 'orientation': OrderedDict({'x': 0.0, 'y': 0.0, 'z': 0.0, 'w': 1.0})})}), OrderedDict({'header': OrderedDict({'stamp': OrderedDict({'sec': 79, 'nanosec': 395000000}), 'frame_id': 'map'}), 'pose': OrderedDict({'position': OrderedDict({'x': 8.545372154246797, 'y': 10.559359907352622, 'z': 0.0}), 'orientation': OrderedDict({'x': 0.0, 'y': 0.0, 'z': 0.0, 'w': 1.0})})}), OrderedDict({'header': OrderedDict({'stamp': OrderedDict({'sec': 79, 'nanosec': 395000000}), 'frame_id': 'map'}), 'pose': OrderedDict({'position': OrderedDict({'x': 8.535801841604188, 'y': 10.53626420388347, 'z': 0.0}), 'orientation': OrderedDict({'x': 0.0, 'y': 0.0, 'z': 0.0, 'w': 1.0})})}), OrderedDict({'header': OrderedDict({'stamp': OrderedDict({'sec': 79, 'nanosec': 395000000}), 'frame_id': 'map'}), 'pose': OrderedDict({'position': OrderedDict({'x': 8.526790000649589, 'y': 10.512945722090684, 'z': 0.0}), 'orientation': OrderedDict({'x': 0.0, 'y': 0.0, 'z': 0.0, 'w': 1.0})})}), OrderedDict({'header': OrderedDict({'stamp': OrderedDict({'sec': 79, 'nanosec': 395000000}), 'frame_id': 'map'}), 'pose': OrderedDict({'position': OrderedDict({'x': 8.518406821813732, 'y': 10.489392254942835, 'z': 0.0}), 'orientation': OrderedDict({'x': 0.0, 'y': 0.0, 'z': 0.0, 'w': 1.0})})}), OrderedDict({'header': OrderedDict({'stamp': OrderedDict({'sec': 79, 'nanosec': 395000000}), 'frame_id': 'map'}), 'pose': OrderedDict({'position': OrderedDict({'x': 8.510579062908027, 'y': 10.465649578807792, 'z': 0.0}), 'orientation': OrderedDict({'x': 0.0, 'y': 0.0, 'z': 0.0, 'w': 1.0})})}), OrderedDict({'header': OrderedDict({'stamp': OrderedDict({'sec': 79, 'nanosec': 395000000}), 'frame_id': 'map'}), 'pose': OrderedDict({'position': OrderedDict({'x': 8.503405906062858, 'y': 10.441702434896264, 'z': 0.0}), 'orientation': OrderedDict({'x': 0.0, 'y': 0.0, 'z': 0.0, 'w': 1.0})})}), OrderedDict({'header': OrderedDict({'stamp': OrderedDict({'sec': 79, 'nanosec': 395000000}), 'frame_id': 'map'}), 'pose': OrderedDict({'position': OrderedDict({'x': 8.496815634968561, 'y': 10.41758439254469, 'z': 0.0}), 'orientation': OrderedDict({'x': 0.0, 'y': 0.0, 'z': 0.0, 'w': 1.0})})}), OrderedDict({'header': OrderedDict({'stamp': OrderedDict({'sec': 79, 'nanosec': 395000000}), 'frame_id': 'map'}), 'pose': OrderedDict({'position': OrderedDict({'x': 8.490899802360877, 'y': 10.393295451753069, 'z': 0.0}), 'orientation': OrderedDict({'x': 0.0, 'y': 0.0, 'z': 0.0, 'w': 1.0})})}), OrderedDict({'header': OrderedDict({'stamp': OrderedDict({'sec': 79, 'nanosec': 395000000}), 'frame_id': 'map'}), 'pose': OrderedDict({'position': OrderedDict({'x': 8.440899801615819, 'y': 10.34329545100801, 'z': 0.0}), 'orientation': OrderedDict({'x': 0.0, 'y': 0.0, 'z': 0.0, 'w': 1.0})})}), OrderedDict({'header': OrderedDict({'stamp': OrderedDict({'sec': 79, 'nanosec': 395000000}), 'frame_id': 'map'}), 'pose': OrderedDict({'position': OrderedDict({'x': 8.403456125408411, 'y': 10.299473393708467, 'z': 0.0}), 'orientation': OrderedDict({'x': 0.0, 'y': 0.0, 'z': 0.9896855427805595, 'w': 0.14325685467421528})})})]"
1765492388.6007833,80,424000000,map,"[OrderedDict({'header': OrderedDict({'stamp': OrderedDict({'sec': 80, 'nanosec': 424000000}), 'frame_id': 'map'}), 'pose': OrderedDict({'position': OrderedDict({'x': 8.440899801615819, 'y': 10.64329545547836, 'z': 0.0}), 'orientation': OrderedDict({'x': 0.0, 'y': 0.0, 'z': 0.0, 'w': 1.0})})}), OrderedDict({'header': OrderedDict({'stamp': OrderedDict({'sec': 80, 'nanosec': 424000000}), 'frame_id': 'map'}), 'pose': OrderedDict({'position': OrderedDict({'x': 8.44153151549242, 'y': 10.611282515548204, 'z': 0.0}), 'orientation': OrderedDict({'x': 0.0, 'y': 0.0, 'z': 0.0, 'w': 1.0})})}), OrderedDict({'header': OrderedDict({'stamp': OrderedDict({'sec': 80, 'nanosec': 424000000}), 'frame_id': 'map'}), 'pose': OrderedDict({'position': OrderedDict({'x': 8.439680624351558, 'y': 10.58634965384855, 'z': 0.0}), 'orientation': OrderedDict({'x': 0.0, 'y': 0.0, 'z': 0.0, 'w': 1.0})})}), OrderedDict({'header': OrderedDict({'stamp': OrderedDict({'sec': 80, 'nanosec': 424000000}), 'frame_id': 'map'}), 'pose': OrderedDict({'position': OrderedDict({'x': 8.436970663373677, 'y': 10.561496137853204, 'z': 0.0}), 'orientation': OrderedDict({'x': 0.0, 'y': 0.0, 'z': 0.0, 'w': 1.0})})}), OrderedDict({'header': OrderedDict({'stamp': OrderedDict({'sec': 80, 'nanosec': 424000000}), 'frame_id': 'map'}), 'pose': OrderedDict({'position': OrderedDict({'x': 8.433360433827692, 'y': 10.536758588656461, 'z': 0.0}), 'orientation': OrderedDict({'x': 0.0, 'y': 0.0, 'z': 0.0, 'w': 1.0})})}), OrderedDict({'header': OrderedDict({'stamp': OrderedDict({'sec': 80, 'nanosec': 424000000}), 'frame_id': 'map'}), 'pose': OrderedDict({'position': OrderedDict({'x': 8.428775167646085, 'y': 10.51218278262619, 'z': 0.0}), 'orientation': OrderedDict({'x': 0.0, 'y': 0.0, 'z': 0.0, 'w': 1.0})})}), OrderedDict({'header': OrderedDict({'stamp': OrderedDict({'sec': 80, 'nanosec': 424000000}), 'frame_id': 'map'}), 'pose': OrderedDict({'position': OrderedDict({'x': 8.4232224942235, 'y': 10.487808392614546, 'z': 0.0}), 'orientation': OrderedDict({'x': 0.0, 'y': 0.0, 'z': 0.0, 'w': 1.0})})}), OrderedDict({'header': OrderedDict({'stamp': OrderedDict({'sec': 80, 'nanosec': 424000000}), 'frame_id': 'map'}), 'pose': OrderedDict({'position': OrderedDict({'x': 8.416655111313139, 'y': 10.463684246747256, 'z': 0.0}), 'orientation': OrderedDict({'x': 0.0, 'y': 0.0, 'z': 0.0, 'w': 1.0})})}), OrderedDict({'header': OrderedDict({'stamp': OrderedDict({'sec': 80, 'nanosec': 424000000}), 'frame_id': 'map'}), 'pose': OrderedDict({'position': OrderedDict({'x': 8.409080648309645, 'y': 10.439859173150047, 'z': 0.0}), 'orientation': OrderedDict({'x': 0.0, 'y': 0.0, 'z': 0.0, 'w': 1.0})})}), OrderedDict({'header': OrderedDict({'stamp': OrderedDict({'sec': 80, 'nanosec': 424000000}), 'frame_id': 'map'}), 'pose': OrderedDict({'position': OrderedDict({'x': 8.400488424060518, 'y': 10.416381999948648, 'z': 0.0}), 'orientation': OrderedDict({'x': 0.0, 'y': 0.0, 'z': 0.0, 'w': 1.0})})}), OrderedDict({'header': OrderedDict({'stamp': OrderedDict({'sec': 80, 'nanosec': 424000000}), 'frame_id': 'map'}), 'pose': OrderedDict({'position': OrderedDict({'x': 8.390899800870761, 'y': 10.393295451753069, 'z': 0.0}), 'orientation': OrderedDict({'x': 0.0, 'y': 0.0, 'z': 0.0, 'w': 1.0})})}), OrderedDict({'header': OrderedDict({'stamp': OrderedDict({'sec': 80, 'nanosec': 424000000}), 'frame_id': 'map'}), 'pose': OrderedDict({'position': OrderedDict({'x': 8.353456124663353, 'y': 10.349473394453526, 'z': 0.0}), 'orientation': OrderedDict({'x': 0.0, 'y': 0.0, 'z': 0.9896855427805595, 'w': 0.14325685467421528})})})]"
1765492389.6625507,81,465000000,map,"[OrderedDict({'header': OrderedDict({'stamp': OrderedDict({'sec': 81, 'nanosec': 465000000}), 'frame_id': 'map'}), 'pose': OrderedDict({'position': OrderedDict({'x': 8.390899800870761, 'y': 10.64329545547836, 'z': 0.0}), 'orientation': OrderedDict({'x': 0.0, 'y': 0.0, 'z': 0.0, 'w': 1.0})})}), OrderedDict({'header': OrderedDict({'stamp': OrderedDict({'sec': 81, 'nanosec': 465000000}), 'frame_id': 'map'}), 'pose': OrderedDict({'position': OrderedDict({'x': 8.391562032325941, 'y': 10.61124284269605, 'z': 0.0}), 'orientation': OrderedDict({'x': 0.0, 'y': 0.0, 'z': 0.0, 'w': 1.0})})}), OrderedDict({'header': OrderedDict({'stamp': OrderedDict({'sec': 81, 'nanosec': 465000000}), 'frame_id': 'map'}), 'pose': OrderedDict({'position': OrderedDict({'x': 8.38972487409544, 'y': 10.586309980996397, 'z': 0.0}), 'orientation': OrderedDict({'x': 0.0, 'y': 0.0, 'z': 0.0, 'w': 1.0})})}), OrderedDict({'header': OrderedDict({'stamp': OrderedDict({'sec': 81, 'nanosec': 465000000}), 'frame_id': 'map'}), 'pose': OrderedDict({'position': OrderedDict({'x': 8.387030171906849, 'y': 10.56145646500105, 'z': 0.0}), 'orientation': OrderedDict({'x': 0.0, 'y': 0.0, 'z': 0.0, 'w': 1.0})})}), OrderedDict({'header': OrderedDict({'stamp': OrderedDict({'sec': 81, 'nanosec': 465000000}), 'frame_id': 'map'}), 'pose': OrderedDict({'position': OrderedDict({'x': 8.383439778786942, 'y': 10.536712812288592, 'z': 0.0}), 'orientation': OrderedDict({'x': 0.0, 'y': 0.0, 'z': 0.0, 'w': 1.0})})}), OrderedDict({'header': OrderedDict({'stamp': OrderedDict({'sec': 81, 'nanosec': 465000000}), 'frame_id': 'map'}), 'pose': OrderedDict({'position': OrderedDict({'x': 8.37887587491034, 'y': 10.512133954500463, 'z': 0.0}), 'orientation': OrderedDict({'x': 0.0, 'y': 0.0, 'z': 0.0, 'w': 1.0})})}), OrderedDict({'header': OrderedDict({'stamp': OrderedDict({'sec': 81, 'nanosec': 465000000}), 'frame_id': 'map'}), 'pose': OrderedDict({'position': OrderedDict({'x': 8.37334761555062, 'y': 10.487753460973103, 'z': 0.0}), 'orientation': OrderedDict({'x': 0.0, 'y': 0.0, 'z': 0.0, 'w': 1.0})})}), OrderedDict({'header': OrderedDict({'stamp': OrderedDict({'sec': 81, 'nanosec': 465000000}), 'frame_id': 'map'}), 'pose': OrderedDict({'position': OrderedDict({'x': 8.366800069066334, 'y': 10.463626263347955, 'z': 0.0}), 'orientation': OrderedDict({'x': 0.0, 'y': 0.0, 'z': 0.0, 'w': 1.0})})}), OrderedDict({'header': OrderedDict({'stamp': OrderedDict({'sec': 81, 'nanosec': 465000000}), 'frame_id': 'map'}), 'pose': OrderedDict({'position': OrderedDict({'x': 8.359234761336415, 'y': 10.439798137992888, 'z': 0.0}), 'orientation': OrderedDict({'x': 0.0, 'y': 0.0, 'z': 0.0, 'w': 1.0})})}), OrderedDict({'header': OrderedDict({'stamp': OrderedDict({'sec': 81, 'nanosec': 465000000}), 'frame_id': 'map'}), 'pose': OrderedDict({'position': OrderedDict({'x': 8.350604390114063, 'y': 10.416336223580778, 'z': 0.0}), 'orientation': OrderedDict({'x': 0.0, 'y': 0.0, 'z': 0.0, 'w': 1.0})})}), OrderedDict({'header': OrderedDict({'stamp': OrderedDict({'sec': 81, 'nanosec': 465000000}), 'frame_id': 'map'}), 'pose': OrderedDict({'position': OrderedDict({'x': 8.340899800125703, 'y': 10.393295451753069, 'z': 0.0}), 'orientation': OrderedDict({'x': 0.0, 'y': 0.0, 'z': 0.0, 'w': 1.0})})}), OrderedDict({'header': OrderedDict({'stamp': OrderedDict({'sec': 81, 'nanosec': 465000000}), 'frame_id': 'map'}), 'pose': OrderedDict({'position': OrderedDict({'x': 8.303456123918295, 'y': 10.349473394453526, 'z': 0.0}), 'orientation': OrderedDict({'x': 0.0, 'y': 0.0, 'z': 0.9896855427805595, 'w': 0.14325685467421528})})})]"
1765492390.7332904,82,503000000,map,"[OrderedDict({'header': OrderedDict({'stamp': OrderedDict({'sec': 82, 'nanosec': 503000000}), 'frame_id': 'map'}), 'pose': OrderedDict({'position': OrderedDict({'x': 8.340899800125703, 'y': 10.64329545547836, 'z': 0.0}), 'orientation': OrderedDict({'x': 0.0, 'y': 0.0, 'z': 0.0, 'w': 1.0})})}), OrderedDict({'header': OrderedDict({'stamp': OrderedDict({'sec': 82, 'nanosec': 503000000}), 'frame_id': 'map'}), 'pose': OrderedDict({'position': OrderedDict({'x': 8.345866536039557, 'y': 10.618051314477192, 'z': 0.0}), 'orientation': OrderedDict({'x': 0.0, 'y': 0.0, 'z': 0.0, 'w': 1.0})})}), OrderedDict({'header': OrderedDict({'stamp': OrderedDict({'sec': 82, 'nanosec': 503000000}), 'frame_id': 'map'}), 'pose': OrderedDict({'position': OrderedDict({'x': 8.346586750894039, 'y': 10.593060469378237, 'z': 0.0}), 'orientation': OrderedDict({'x': 0.0, 'y': 0.0, 'z': 0.0, 'w': 1.0})})}), OrderedDict({'header': OrderedDict({'stamp': OrderedDict({'sec': 82, 'nanosec': 503000000}), 'frame_id': 'map'}), 'pose': OrderedDict({'position': OrderedDict({'x': 8.347009419357368, 'y': 10.568063520763566, 'z': 0.0}), 'orientation': OrderedDict({'x': 0.0, 'y': 0.0, 'z': 0.0, 'w': 1.0})})}), OrderedDict({'header': OrderedDict({'stamp': OrderedDict({'sec': 82, 'nanosec': 503000000}), 'frame_id': 'map'}), 'pose': OrderedDict({'position': OrderedDict({'x': 8.34699263468915, 'y': 10.543063520391037, 'z': 0.0}), 'orientation': OrderedDict({'x': 0.0, 'y': 0.0, 'z': 0.0, 'w': 1.0})})}), OrderedDict({'header': OrderedDict({'stamp': OrderedDict({'sec': 82, 'nanosec': 503000000}), 'frame_id': 'map'}), 'pose': OrderedDict({'position': OrderedDict({'x': 8.346444844153643, 'y': 10.518069623534224, 'z': 0.0}), 'orientation': OrderedDict({'x': 0.0, 'y': 0.0, 'z': 0.0, 'w': 1.0})})}), OrderedDict({'header': OrderedDict({'stamp': OrderedDict({'sec': 82, 'nanosec': 503000000}), 'frame_id': 'map'}), 'pose': OrderedDict({'position': OrderedDict({'x': 8.345291279683329, 'y': 10.493097088982417, 'z': 0.0}), 'orientation': OrderedDict({'x': 0.0, 'y': 0.0, 'z': 0.0, 'w': 1.0})})}), OrderedDict({'header': OrderedDict({'stamp': OrderedDict({'sec': 82, 'nanosec': 503000000}), 'frame_id': 'map'}), 'pose': OrderedDict({'position': OrderedDict({'x': 8.343446492058183, 'y': 10.468164227282763, 'z': 0.0}), 'orientation': OrderedDict({'x': 0.0, 'y': 0.0, 'z': 0.0, 'w': 1.0})})}), OrderedDict({'header': OrderedDict({'stamp': OrderedDict({'sec': 82, 'nanosec': 503000000}), 'frame_id': 'map'}), 'pose': OrderedDict({'position': OrderedDict({'x': 8.340899800125703, 'y': 10.443295452498127, 'z': 0.0}), 'orientation': OrderedDict({'x': 0.0, 'y': 0.0, 'z': 0.0, 'w': 1.0})})}), OrderedDict({'header': OrderedDict({'stamp': OrderedDict({'sec': 82, 'nanosec': 503000000}), 'frame_id': 'map'}), 'pose': OrderedDict({'position': OrderedDict({'x': 8.340899800125703, 'y': 10.393295451753069, 'z': 0.0}), 'orientation': OrderedDict({'x': 0.0, 'y': 0.0, 'z': 0.0, 'w': 1.0})})}), OrderedDict({'header': OrderedDict({'stamp': OrderedDict({'sec': 82, 'nanosec': 503000000}), 'frame_id': 'map'}), 'pose': OrderedDict({'position': OrderedDict({'x': 8.353456124663353, 'y': 10.349473394453526, 'z': 0.0}), 'orientation': OrderedDict({'x': 0.0, 'y': 0.0, 'z': 0.9896855427805595, 'w': 0.14325685467421528})})})]"
1765492391.8007517,83,538000000,map,"[OrderedDict({'header': OrderedDict({'stamp': OrderedDict({'sec': 83, 'nanosec': 538000000}), 'frame_id': 'map'}), 'pose': OrderedDict({'position': OrderedDict({'x': 8.440899801615819, 'y': 10.64329545547836, 'z': 0.0}), 'orientation': OrderedDict({'x': 0.0, 'y': 0.0, 'z': 0.0, 'w': 1.0})})}), OrderedDict({'header': OrderedDict({'stamp': OrderedDict({'sec': 83, 'nanosec': 538000000}), 'frame_id': 'map'}), 'pose': OrderedDict({'position': OrderedDict({'x': 8.44153151549242, 'y': 10.611282515548204, 'z': 0.0}), 'orientation': OrderedDict({'x': 0.0, 'y': 0.0, 'z': 0.0, 'w': 1.0})})}), OrderedDict({'header': OrderedDict({'stamp': OrderedDict({'sec': 83, 'nanosec': 538000000}), 'frame_id': 'map'}), 'pose': OrderedDict({'position': OrderedDict({'x': 8.439680624351558, 'y': 10.58634965384855, 'z': 0.0}), 'orientation': OrderedDict({'x': 0.0, 'y': 0.0, 'z': 0.0, 'w': 1.0})})}), OrderedDict({'header': OrderedDict({'stamp': OrderedDict({'sec': 83, 'nanosec': 538000000}), 'frame_id': 'map'}), 'pose': OrderedDict({'position': OrderedDict({'x': 8.436970663373677, 'y': 10.561496137853204, 'z': 0.0}), 'orientation': OrderedDict({'x': 0.0, 'y': 0.0, 'z': 0.0, 'w': 1.0})})}), OrderedDict({'header': OrderedDict({'stamp': OrderedDict({'sec': 83, 'nanosec': 538000000}), 'frame_id': 'map'}), 'pose': OrderedDict({'position': OrderedDict({'x': 8.433360433827692, 'y': 10.536758588656461, 'z': 0.0}), 'orientation': OrderedDict({'x': 0.0, 'y': 0.0, 'z': 0.0, 'w': 1.0})})}), OrderedDict({'header': OrderedDict({'stamp': OrderedDict({'sec': 83, 'nanosec': 538000000}), 'frame_id': 'map'}), 'pose': OrderedDict({'position': OrderedDict({'x': 8.428775167646085, 'y': 10.51218278262619, 'z': 0.0}), 'orientation': OrderedDict({'x': 0.0, 'y': 0.0, 'z': 0.0, 'w': 1.0})})}), OrderedDict({'header': OrderedDict({'stamp': OrderedDict({'sec': 83, 'nanosec': 538000000}), 'frame_id': 'map'}), 'pose': OrderedDict({'position': OrderedDict({'x': 8.4232224942235, 'y': 10.487808392614546, 'z': 0.0}), 'orientation': OrderedDict({'x': 0.0, 'y': 0.0, 'z': 0.0, 'w': 1.0})})}), OrderedDict({'header': OrderedDict({'stamp': OrderedDict({'sec': 83, 'nanosec': 538000000}), 'frame_id': 'map'}), 'pose': OrderedDict({'position': OrderedDict({'x': 8.416655111313139, 'y': 10.463684246747256, 'z': 0.0}), 'orientation': OrderedDict({'x': 0.0, 'y': 0.0, 'z': 0.0, 'w': 1.0})})}), OrderedDict({'header': OrderedDict({'stamp': OrderedDict({'sec': 83, 'nanosec': 538000000}), 'frame_id': 'map'}), 'pose': OrderedDict({'position': OrderedDict({'x': 8.409080648309645, 'y': 10.439859173150047, 'z': 0.0}), 'orientation': OrderedDict({'x': 0.0, 'y': 0.0, 'z': 0.0, 'w': 1.0})})}), OrderedDict({'header': OrderedDict({'stamp': OrderedDict({'sec': 83, 'nanosec': 538000000}), 'frame_id': 'map'}), 'pose': OrderedDict({'position': OrderedDict({'x': 8.400488424060518, 'y': 10.416381999948648, 'z': 0.0}), 'orientation': OrderedDict({'x': 0.0, 'y': 0.0, 'z': 0.0, 'w': 1.0})})}), OrderedDict({'header': OrderedDict({'stamp': OrderedDict({'sec': 83, 'nanosec': 538000000}), 'frame_id': 'map'}), 'pose': OrderedDict({'position': OrderedDict({'x': 8.390899800870761, 'y': 10.393295451753069, 'z': 0.0}), 'orientation': OrderedDict({'x': 0.0, 'y': 0.0, 'z': 0.0, 'w': 1.0})})}), OrderedDict({'header': OrderedDict({'stamp': OrderedDict({'sec': 83, 'nanosec': 538000000}), 'frame_id': 'map'}), 'pose': OrderedDict({'position': OrderedDict({'x': 8.353456124663353, 'y': 10.349473394453526, 'z': 0.0}), 'orientation': OrderedDict({'x': 0.0, 'y': 0.0, 'z': 0.9896855427805595, 'w': 0.14325685467421528})})})]"
1765492392.8712306,84,564000000,map,"[OrderedDict({'header': OrderedDict({'stamp': OrderedDict({'sec': 84, 'nanosec': 564000000}), 'frame_id': 'map'}), 'pose': OrderedDict({'position': OrderedDict({'x': 8.440899801615819, 'y': 10.64329545547836, 'z': 0.0}), 'orientation': OrderedDict({'x': 0.0, 'y': 0.0, 'z': 0.0, 'w': 1.0})})}), OrderedDict({'header': OrderedDict({'stamp': OrderedDict({'sec': 84, 'nanosec': 564000000}), 'frame_id': 'map'}), 'pose': OrderedDict({'position': OrderedDict({'x': 8.44153151549242, 'y': 10.611282515548204, 'z': 0.0}), 'orientation': OrderedDict({'x': 0.0, 'y': 0.0, 'z': 0.0, 'w': 1.0})})}), OrderedDict({'header': OrderedDict({'stamp': OrderedDict({'sec': 84, 'nanosec': 564000000}), 'frame_id': 'map'}), 'pose': OrderedDict({'position': OrderedDict({'x': 8.439680624351558, 'y': 10.58634965384855, 'z': 0.0}), 'orientation': OrderedDict({'x': 0.0, 'y': 0.0, 'z': 0.0, 'w': 1.0})})}), OrderedDict({'header': OrderedDict({'stamp': OrderedDict({'sec': 84, 'nanosec': 564000000}), 'frame_id': 'map'}), 'pose': OrderedDict({'position': OrderedDict({'x': 8.436970663373677, 'y': 10.561496137853204, 'z': 0.0}), 'orientation': OrderedDict({'x': 0.0, 'y': 0.0, 'z': 0.0, 'w': 1.0})})}), OrderedDict({'header': OrderedDict({'stamp': OrderedDict({'sec': 84, 'nanosec': 564000000}), 'frame_id': 'map'}), 'pose': OrderedDict({'position': OrderedDict({'x': 8.433360433827692, 'y': 10.536758588656461, 'z': 0.0}), 'orientation': OrderedDict({'x': 0.0, 'y': 0.0, 'z': 0.0, 'w': 1.0})})}), OrderedDict({'header': OrderedDict({'stamp': OrderedDict({'sec': 84, 'nanosec': 564000000}), 'frame_id': 'map'}), 'pose': OrderedDict({'position': OrderedDict({'x': 8.428775167646085, 'y': 10.51218278262619, 'z': 0.0}), 'orientation': OrderedDict({'x': 0.0, 'y': 0.0, 'z': 0.0, 'w': 1.0})})}), OrderedDict({'header': OrderedDict({'stamp': OrderedDict({'sec': 84, 'nanosec': 564000000}), 'frame_id': 'map'}), 'pose': OrderedDict({'position': OrderedDict({'x': 8.4232224942235, 'y': 10.487808392614546, 'z': 0.0}), 'orientation': OrderedDict({'x': 0.0, 'y': 0.0, 'z': 0.0, 'w': 1.0})})}), OrderedDict({'header': OrderedDict({'stamp': OrderedDict({'sec': 84, 'nanosec': 564000000}), 'frame_id': 'map'}), 'pose': OrderedDict({'position': OrderedDict({'x': 8.416655111313139, 'y': 10.463684246747256, 'z': 0.0}), 'orientation': OrderedDict({'x': 0.0, 'y': 0.0, 'z': 0.0, 'w': 1.0})})}), OrderedDict({'header': OrderedDict({'stamp': OrderedDict({'sec': 84, 'nanosec': 564000000}), 'frame_id': 'map'}), 'pose': OrderedDict({'position': OrderedDict({'x': 8.409080648309645, 'y': 10.439859173150047, 'z': 0.0}), 'orientation': OrderedDict({'x': 0.0, 'y': 0.0, 'z': 0.0, 'w': 1.0})})}), OrderedDict({'header': OrderedDict({'stamp': OrderedDict({'sec': 84, 'nanosec': 564000000}), 'frame_id': 'map'}), 'pose': OrderedDict({'position': OrderedDict({'x': 8.400488424060518, 'y': 10.416381999948648, 'z': 0.0}), 'orientation': OrderedDict({'x': 0.0, 'y': 0.0, 'z': 0.0, 'w': 1.0})})}), OrderedDict({'header': OrderedDict({'stamp': OrderedDict({'sec': 84, 'nanosec': 564000000}), 'frame_id': 'map'}), 'pose': OrderedDict({'position': OrderedDict({'x': 8.390899800870761, 'y': 10.393295451753069, 'z': 0.0}), 'orientation': OrderedDict({'x': 0.0, 'y': 0.0, 'z': 0.0, 'w': 1.0})})}), OrderedDict({'header': OrderedDict({'stamp': OrderedDict({'sec': 84, 'nanosec': 564000000}), 'frame_id': 'map'}), 'pose': OrderedDict({'position': OrderedDict({'x': 8.353456124663353, 'y': 10.349473394453526, 'z': 0.0}), 'orientation': OrderedDict({'x': 0.0, 'y': 0.0, 'z': 0.9896855427805595, 'w': 0.14325685467421528})})})]"
1765492393.9393866,85,593000000,map,"[OrderedDict({'header': OrderedDict({'stamp': OrderedDict({'sec': 85, 'nanosec': 593000000}), 'frame_id': 'map'}), 'pose': OrderedDict({'position': OrderedDict({'x': 8.440899801615819, 'y': 10.64329545547836, 'z': 0.0}), 'orientation': OrderedDict({'x': 0.0, 'y': 0.0, 'z': 0.0, 'w': 1.0})})}), OrderedDict({'header': OrderedDict({'stamp': OrderedDict({'sec': 85, 'nanosec': 593000000}), 'frame_id': 'map'}), 'pose': OrderedDict({'position': OrderedDict({'x': 8.44153151549242, 'y': 10.611282515548204, 'z': 0.0}), 'orientation': OrderedDict({'x': 0.0, 'y': 0.0, 'z': 0.0, 'w': 1.0})})}), OrderedDict({'header': OrderedDict({'stamp': OrderedDict({'sec': 85, 'nanosec': 593000000}), 'frame_id': 'map'}), 'pose': OrderedDict({'position': OrderedDict({'x': 8.439680624351558, 'y': 10.58634965384855, 'z': 0.0}), 'orientation': OrderedDict({'x': 0.0, 'y': 0.0, 'z': 0.0, 'w': 1.0})})}), OrderedDict({'header': OrderedDict({'stamp': OrderedDict({'sec': 85, 'nanosec': 593000000}), 'frame_id': 'map'}), 'pose': OrderedDict({'position': OrderedDict({'x': 8.436970663373677, 'y': 10.561496137853204, 'z': 0.0}), 'orientation': OrderedDict({'x': 0.0, 'y': 0.0, 'z': 0.0, 'w': 1.0})})}), OrderedDict({'header': OrderedDict({'stamp': OrderedDict({'sec': 85, 'nanosec': 593000000}), 'frame_id': 'map'}), 'pose': OrderedDict({'position': OrderedDict({'x': 8.433360433827692, 'y': 10.536758588656461, 'z': 0.0}), 'orientation': OrderedDict({'x': 0.0, 'y': 0.0, 'z': 0.0, 'w': 1.0})})}), OrderedDict({'header': OrderedDict({'stamp': OrderedDict({'sec': 85, 'nanosec': 593000000}), 'frame_id': 'map'}), 'pose': OrderedDict({'position': OrderedDict({'x': 8.428775167646085, 'y': 10.51218278262619, 'z': 0.0}), 'orientation': OrderedDict({'x': 0.0, 'y': 0.0, 'z': 0.0, 'w': 1.0})})}), OrderedDict({'header': OrderedDict({'stamp': OrderedDict({'sec': 85, 'nanosec': 593000000}), 'frame_id': 'map'}), 'pose': OrderedDict({'position': OrderedDict({'x': 8.4232224942235, 'y': 10.487808392614546, 'z': 0.0}), 'orientation': OrderedDict({'x': 0.0, 'y': 0.0, 'z': 0.0, 'w': 1.0})})}), OrderedDict({'header': OrderedDict({'stamp': OrderedDict({'sec': 85, 'nanosec': 593000000}), 'frame_id': 'map'}), 'pose': OrderedDict({'position': OrderedDict({'x': 8.416655111313139, 'y': 10.463684246747256, 'z': 0.0}), 'orientation': OrderedDict({'x': 0.0, 'y': 0.0, 'z': 0.0, 'w': 1.0})})}), OrderedDict({'header': OrderedDict({'stamp': OrderedDict({'sec': 85, 'nanosec': 593000000}), 'frame_id': 'map'}), 'pose': OrderedDict({'position': OrderedDict({'x': 8.409080648309645, 'y': 10.439859173150047, 'z': 0.0}), 'orientation': OrderedDict({'x': 0.0, 'y': 0.0, 'z': 0.0, 'w': 1.0})})}), OrderedDict({'header': OrderedDict({'stamp': OrderedDict({'sec': 85, 'nanosec': 593000000}), 'frame_id': 'map'}), 'pose': OrderedDict({'position': OrderedDict({'x': 8.400488424060518, 'y': 10.416381999948648, 'z': 0.0}), 'orientation': OrderedDict({'x': 0.0, 'y': 0.0, 'z': 0.0, 'w': 1.0})})}), OrderedDict({'header': OrderedDict({'stamp': OrderedDict({'sec': 85, 'nanosec': 593000000}), 'frame_id': 'map'}), 'pose': OrderedDict({'position': OrderedDict({'x': 8.390899800870761, 'y': 10.393295451753069, 'z': 0.0}), 'orientation': OrderedDict({'x': 0.0, 'y': 0.0, 'z': 0.0, 'w': 1.0})})}), OrderedDict({'header': OrderedDict({'stamp': OrderedDict({'sec': 85, 'nanosec': 593000000}), 'frame_id': 'map'}), 'pose': OrderedDict({'position': OrderedDict({'x': 8.353456124663353, 'y': 10.349473394453526, 'z': 0.0}), 'orientation': OrderedDict({'x': 0.0, 'y': 0.0, 'z': 0.9896855427805595, 'w': 0.14325685467421528})})})]"
1765492395.0131645,86,628000000,map,"[OrderedDict({'header': OrderedDict({'stamp': OrderedDict({'sec': 86, 'nanosec': 628000000}), 'frame_id': 'map'}), 'pose': OrderedDict({'position': OrderedDict({'x': 8.440899801615819, 'y': 10.64329545547836, 'z': 0.0}), 'orientation': OrderedDict({'x': 0.0, 'y': 0.0, 'z': 0.0, 'w': 1.0})})}), OrderedDict({'header': OrderedDict({'stamp': OrderedDict({'sec': 86, 'nanosec': 628000000}), 'frame_id': 'map'}), 'pose': OrderedDict({'position': OrderedDict({'x': 8.44159255064958, 'y': 10.611245894453909, 'z': 0.0}), 'orientation': OrderedDict({'x': 0.0, 'y': 0.0, 'z': 0.0, 'w': 1.0})})}), OrderedDict({'header': OrderedDict({'stamp': OrderedDict({'sec': 86, 'nanosec': 628000000}), 'frame_id': 'map'}), 'pose': OrderedDict({'position': OrderedDict({'x': 8.43976912532944, 'y': 10.586313032754255, 'z': 0.0}), 'orientation': OrderedDict({'x': 0.0, 'y': 0.0, 'z': 0.0, 'w': 1.0})})}), OrderedDict({'header': OrderedDict({'stamp': OrderedDict({'sec': 86, 'nanosec': 628000000}), 'frame_id': 'map'}), 'pose': OrderedDict({'position': OrderedDict({'x': 8.437091207809067, 'y': 10.56145646500105, 'z': 0.0}), 'orientation': OrderedDict({'x': 0.0, 'y': 0.0, 'z': 0.0, 'w': 1.0})})}), OrderedDict({'header': OrderedDict({'stamp': OrderedDict({'sec': 86, 'nanosec': 628000000}), 'frame_id': 'map'}), 'pose': OrderedDict({'position': OrderedDict({'x': 8.433509969962733, 'y': 10.536712812288592, 'z': 0.0}), 'orientation': OrderedDict({'x': 0.0, 'y': 0.0, 'z': 0.0, 'w': 1.0})})}), OrderedDict({'header': OrderedDict({'stamp': OrderedDict({'sec': 86, 'nanosec': 628000000}), 'frame_id': 'map'}), 'pose': OrderedDict({'position': OrderedDict({'x': 8.428926229660055, 'y': 10.512137006258321, 'z': 0.0}), 'orientation': OrderedDict({'x': 0.0, 'y': 0.0, 'z': 0.0, 'w': 1.0})})}), OrderedDict({'header': OrderedDict({'stamp': OrderedDict({'sec': 86, 'nanosec': 628000000}), 'frame_id': 'map'}), 'pose': OrderedDict({'position': OrderedDict({'x': 8.423352193932464, 'y': 10.487765668004535, 'z': 0.0}), 'orientation': OrderedDict({'x': 0.0, 'y': 0.0, 'z': 0.0, 'w': 1.0})})}), OrderedDict({'header': OrderedDict({'stamp': OrderedDict({'sec': 86, 'nanosec': 628000000}), 'frame_id': 'map'}), 'pose': OrderedDict({'position': OrderedDict({'x': 8.416740560533162, 'y': 10.463656780926534, 'z': 0.0}), 'orientation': OrderedDict({'x': 0.0, 'y': 0.0, 'z': 0.0, 'w': 1.0})})}), OrderedDict({'header': OrderedDict({'stamp': OrderedDict({'sec': 86, 'nanosec': 628000000}), 'frame_id': 'map'}), 'pose': OrderedDict({'position': OrderedDict({'x': 8.409114217646083, 'y': 10.439846966118616, 'z': 0.0}), 'orientation': OrderedDict({'x': 0.0, 'y': 0.0, 'z': 0.0, 'w': 1.0})})}), OrderedDict({'header': OrderedDict({'stamp': OrderedDict({'sec': 86, 'nanosec': 628000000}), 'frame_id': 'map'}), 'pose': OrderedDict({'position': OrderedDict({'x': 8.400488424060518, 'y': 10.416381999948648, 'z': 0.0}), 'orientation': OrderedDict({'x': 0.0, 'y': 0.0, 'z': 0.0, 'w': 1.0})})}), OrderedDict({'header': OrderedDict({'stamp': OrderedDict({'sec': 86, 'nanosec': 628000000}), 'frame_id': 'map'}), 'pose': OrderedDict({'position': OrderedDict({'x': 8.390899800870761, 'y': 10.393295451753069, 'z': 0.0}), 'orientation': OrderedDict({'x': 0.0, 'y': 0.0, 'z': 0.0, 'w': 1.0})})}), OrderedDict({'header': OrderedDict({'stamp': OrderedDict({'sec': 86, 'nanosec': 628000000}), 'frame_id': 'map'}), 'pose': OrderedDict({'position': OrderedDict({'x': 8.353456124663353, 'y': 10.349473394453526, 'z': 0.0}), 'orientation': OrderedDict({'x': 0.0, 'y': 0.0, 'z': 0.9896855427805595, 'w': 0.14325685467421528})})})]"
