Timestamp,header_stamp_sec,header_stamp_nanosec,header_frame_id,twist_linear_x,twist_linear_y,twist_linear_z,twist_angular_x,twist_angular_y,twist_angular_z
1765492332.5906985,25,872000000,base_link,0.029217327013611794,0.0,0.0,0.0,0.0,0.018527831882238388
1765492332.6494312,25,920000000,base_link,0.04861744865775108,0.0,0.0,0.0,0.0,0.025929154828190804
1765492332.689695,25,968000000,base_link,0.06362145394086838,0.0,0.0,0.0,0.0,0.04012368991971016
1765492332.7310264,26,22000000,base_link,0.0727381706237793,0.0,0.0,0.0,0.0,0.060159336775541306
1765492332.7893298,26,70000000,base_link,0.0861472338438034,0.0,0.0,0.0,0.0,0.06938420236110687
1765492332.8391643,26,121000000,base_link,0.06350847333669662,0.0,0.0,0.0,0.0,0.10777681320905685
1765492332.8792741,26,163000000,base_link,0.05040812864899635,0.0,0.0,0.0,0.0,0.14842769503593445
1765492332.9393442,26,211000000,base_link,0.03993683308362961,0.0,0.0,0.0,0.0,0.17927248775959015
1765492332.9793472,26,259000000,base_link,0.03731394186615944,0.0,0.0,0.0,0.0,0.1974467933177948
1765492333.0393116,26,310000000,base_link,0.03484201058745384,0.0,0.0,0.0,0.0,0.23354285955429077
1765492333.0997891,26,358000000,base_link,0.035146284848451614,0.0,0.0,0.0,0.0,0.2573472857475281
1765492333.1395495,26,406000000,base_link,0.033448029309511185,0.0,0.0,0.0,0.0,0.2834762632846832
1765492333.1791372,26,457000000,base_link,0.03931228443980217,0.0,0.0,0.0,0.0,0.3058713674545288
1765492333.2396033,26,505000000,base_link,0.051271162927150726,0.0,0.0,0.0,0.0,0.32059651613235474
1765492333.279429,26,556000000,base_link,0.060625288635492325,0.0,0.0,0.0,0.0,0.33389419317245483
1765492333.3307283,26,604000000,base_link,0.06899988651275635,0.0,0.0,0.0,0.0,0.3529622554779053
1765492333.3688712,26,649000000,base_link,0.07566557824611664,0.0,0.0,0.0,0.0,0.3690049648284912
1765492333.449546,26,697000000,base_link,0.07749554514884949,0.0,0.0,0.0,0.0,0.3809528946876526
1765492333.4911551,26,745000000,base_link,0.08184575289487839,0.0,0.0,0.0,0.0,0.39216819405555725
1765492333.5290859,26,793000000,base_link,0.08605769276618958,0.0,0.0,0.0,0.0,0.4078528881072998
1765492333.5914106,26,847000000,base_link,0.09353676438331604,0.0,0.0,0.0,0.0,0.41218775510787964
1765492333.6301184,26,895000000,base_link,0.09988561272621155,0.0,0.0,0.0,0.0,0.41012153029441833
1765492333.6688056,26,943000000,base_link,0.10648110508918762,0.0,0.0,0.0,0.0,0.4110676348209381
1765492333.7400136,26,994000000,base_link,0.11843608319759369,0.0,0.0,0.0,0.0,0.4174323081970215
1765492333.768876,27,42000000,base_link,0.12993258237838745,0.0,0.0,0.0,0.0,0.42036762833595276
1765492333.818873,27,87000000,base_link,0.1322319209575653,0.0,0.0,0.0,0.0,0.42153188586235046
1765492333.8904986,27,135000000,base_link,0.1379982829093933,0.0,0.0,0.0,0.0,0.43274784088134766
1765492333.949238,27,186000000,base_link,0.14410369098186493,0.0,0.0,0.0,0.0,0.43552327156066895
1765492333.9893048,27,234000000,base_link,0.15101373195648193,0.0,0.0,0.0,0.0,0.43594232201576233
1765492334.029506,27,279000000,base_link,0.16196510195732117,0.0,0.0,0.0,0.0,0.4360876977443695
1765492334.0918133,27,330000000,base_link,0.17047254741191864,0.0,0.0,0.0,0.0,0.4274187386035919
1765492334.1292024,27,381000000,base_link,0.18191686272621155,0.0,0.0,0.0,0.0,0.43538594245910645
1765492334.1689322,27,426000000,base_link,0.19954298436641693,0.0,0.0,0.0,0.0,0.4372902512550354
1765492334.229573,27,474000000,base_link,0.21116898953914642,0.0,0.0,0.0,0.0,0.431250661611557
1765492334.2689297,27,528000000,base_link,0.22659540176391602,0.0,0.0,0.0,0.0,0.417720764875412
1765492334.3292482,27,576000000,base_link,0.23981522023677826,0.0,0.0,0.0,0.0,0.4217429459095001
1765492334.3998096,27,627000000,base_link,0.2578482925891876,0.0,0.0,0.0,0.0,0.42152804136276245
1765492334.439758,27,675000000,base_link,0.2700960040092468,0.0,0.0,0.0,0.0,0.41159629821777344
1765492334.4795957,27,717000000,base_link,0.28539180755615234,0.0,0.0,0.0,0.0,0.41560834646224976
1765492334.539565,27,765000000,base_link,0.3019348978996277,0.0,0.0,0.0,0.0,0.39892879128456116
1765492334.5792458,27,816000000,base_link,0.32071030139923096,0.0,0.0,0.0,0.0,0.39184874296188354
1765492334.6188374,27,864000000,base_link,0.33357712626457214,0.0,0.0,0.0,0.0,0.37717217206954956
1765492334.6901343,27,915000000,base_link,0.3438011705875397,0.0,0.0,0.0,0.0,0.3658892810344696
1765492334.749493,27,960000000,base_link,0.35727736353874207,0.0,0.0,0.0,0.0,0.35461702942848206
1765492334.7899895,28,14000000,base_link,0.3702867925167084,0.0,0.0,0.0,0.0,0.3468119204044342
1765492334.8497574,28,59000000,base_link,0.37653079628944397,0.0,0.0,0.0,0.0,0.3301275968551636
1765492334.8910377,28,107000000,base_link,0.38862231373786926,0.0,0.0,0.0,0.0,0.31732386350631714
1765492334.9328752,28,158000000,base_link,0.399920791387558,0.0,0.0,0.0,0.0,0.30192914605140686
1765492334.979407,28,200000000,base_link,0.4052252471446991,0.0,0.0,0.0,0.0,0.34176599979400635
1765492335.0390532,28,251000000,base_link,0.41875505447387695,0.0,0.0,0.0,0.0,0.3111419379711151
1765492335.0789914,28,299000000,base_link,0.42909765243530273,0.0,0.0,0.0,0.0,0.299430251121521
1765492335.1191254,28,347000000,base_link,0.4397488236427307,0.0,0.0,0.0,0.0,0.2751432955265045
1765492335.2001667,28,398000000,base_link,0.4460914433002472,0.0,0.0,0.0,0.0,0.2579687833786011
1765492335.239329,28,449000000,base_link,0.4532661736011505,0.0,0.0,0.0,0.0,0.24470773339271545
1765492335.2809932,28,497000000,base_link,0.4620361626148224,0.0,0.0,0.0,0.0,0.2300611138343811
1765492335.3393588,28,545000000,base_link,0.47036850452423096,0.0,0.0,0.0,0.0,0.2168087512254715
1765492335.3791628,28,593000000,base_link,0.4746744632720947,0.0,0.0,0.0,0.0,0.20225009322166443
1765492335.4290264,28,644000000,base_link,0.4871724247932434,0.0,0.0,0.0,0.0,0.1812298595905304
1765492335.469044,28,692000000,base_link,0.4939350485801697,0.0,0.0,0.0,0.0,0.1743878275156021
1765492335.5291436,28,734000000,base_link,0.49872511625289917,0.0,0.0,0.0,0.0,0.22653475403785706
1765492335.5689485,28,785000000,base_link,0.5005833506584167,0.0,0.0,0.0,0.0,0.22111955285072327
1765492335.62915,28,836000000,base_link,0.5005725622177124,0.0,0.0,0.0,0.0,0.20596985518932343
1765492335.689331,28,884000000,base_link,0.5002478957176208,0.0,0.0,0.0,0.0,0.1982051134109497
1765492335.729017,28,932000000,base_link,0.5000235438346863,0.0,0.0,0.0,0.0,0.19704602658748627
1765492335.8004065,28,986000000,base_link,0.49996691942214966,0.0,0.0,0.0,0.0,0.19974401593208313
1765492335.8393402,29,31000000,base_link,0.4992949962615967,0.0,0.0,0.0,0.0,0.1904626488685608
1765492335.8792543,29,79000000,base_link,0.49987679719924927,0.0,0.0,0.0,0.0,0.1762462556362152
1765492335.9412956,29,130000000,base_link,0.499939501285553,0.0,0.0,0.0,0.0,0.1681623011827469
1765492335.9790576,29,178000000,base_link,0.5000463724136353,0.0,0.0,0.0,0.0,0.15867066383361816
1765492336.0415075,29,229000000,base_link,0.5001253485679626,0.0,0.0,0.0,0.0,0.15967446565628052
1765492336.079152,29,274000000,base_link,0.5000295042991638,0.0,0.0,0.0,0.0,0.07939101755619049
1765492336.139713,29,322000000,base_link,0.5000083446502686,0.0,0.0,0.0,0.0,0.04546397924423218
1765492336.1898792,29,370000000,base_link,0.49780601263046265,0.0,0.0,0.0,0.0,0.011687242425978184
1765492336.2293906,29,421000000,base_link,0.4994240403175354,0.0,0.0,0.0,0.0,-0.005910877138376236
1765492336.289212,29,472000000,base_link,0.49976903200149536,0.0,0.0,0.0,0.0,-0.026615530252456665
1765492336.3295758,29,523000000,base_link,0.5005528330802917,0.0,0.0,0.0,0.0,-0.04842928797006607
1765492336.3688993,29,568000000,base_link,0.5001317262649536,0.0,0.0,0.0,0.0,-0.059246256947517395
1765492336.4290252,29,616000000,base_link,0.49890291690826416,0.0,0.0,0.0,0.0,-0.07061172276735306
1765492336.4890893,29,667000000,base_link,0.49977248907089233,0.0,0.0,0.0,0.0,-0.08563407510519028
1765492336.5290701,29,715000000,base_link,0.4985389709472656,0.0,0.0,0.0,0.0,-0.09826216101646423
1765492336.599233,29,769000000,base_link,0.4980171322822571,0.0,0.0,0.0,0.0,-0.10146241635084152
1765492336.6392024,29,811000000,base_link,0.49959737062454224,0.0,0.0,0.0,0.0,-0.09126543998718262
1765492336.6688616,29,859000000,base_link,0.49994462728500366,0.0,0.0,0.0,0.0,-0.09304855018854141
1765492336.7400265,29,910000000,base_link,0.5001464486122131,0.0,0.0,0.0,0.0,-0.09801311045885086
1765492336.7798896,29,958000000,base_link,0.5000579357147217,0.0,0.0,0.0,0.0,-0.09837465733289719
1765492336.8191617,30,9000000,base_link,0.5000236630439758,0.0,0.0,0.0,0.0,-0.09673385322093964
1765492336.8999538,30,57000000,base_link,0.49989718198776245,0.0,0.0,0.0,0.0,-0.09841462224721909
1765492336.939493,30,105000000,base_link,0.49997878074645996,0.0,0.0,0.0,0.0,-0.08650248497724533
1765492336.9792356,30,153000000,base_link,0.4995570480823517,0.0,0.0,0.0,0.0,-0.08334530889987946
1765492337.0390818,30,204000000,base_link,0.49993330240249634,0.0,0.0,0.0,0.0,-0.0818573385477066
1765492337.0912273,30,252000000,base_link,0.49996381998062134,0.0,0.0,0.0,0.0,-0.04649367555975914
1765492337.1291382,30,303000000,base_link,0.5000301003456116,0.0,0.0,0.0,0.0,-0.037784282118082047
1765492337.1687634,30,345000000,base_link,0.500025749206543,0.0,0.0,0.0,0.0,-0.02835005149245262
1765492337.229124,30,396000000,base_link,0.5000094771385193,0.0,0.0,0.0,0.0,-0.019321119412779808
1765492337.2802076,30,444000000,base_link,0.5000004172325134,0.0,0.0,0.0,0.0,-0.010054061189293861
1765492337.3392558,30,495000000,base_link,0.4999982714653015,0.0,0.0,0.0,0.0,0.0044526830315589905
1765492337.399816,30,540000000,base_link,0.4998213052749634,0.0,0.0,0.0,0.0,0.006248373072594404
1765492337.4396718,30,588000000,base_link,0.4999696612358093,0.0,0.0,0.0,0.0,0.012461241334676743
1765492337.4799953,30,636000000,base_link,0.49871474504470825,0.0,0.0,0.0,0.0,0.023210758343338966
1765492337.5395815,30,687000000,base_link,0.49979740381240845,0.0,0.0,0.0,0.0,0.03396373987197876
1765492337.5799465,30,735000000,base_link,0.49989062547683716,0.0,0.0,0.0,0.0,0.03211706876754761
1765492337.6196427,30,786000000,base_link,0.5000861287117004,0.0,0.0,0.0,0.0,0.03436142951250076
1765492337.6894896,30,834000000,base_link,0.500026285648346,0.0,0.0,0.0,0.0,0.029057852923870087
1765492337.7193022,30,879000000,base_link,0.49988967180252075,0.0,0.0,0.0,0.0,0.03075793944299221
1765492337.790991,30,930000000,base_link,0.49997514486312866,0.0,0.0,0.0,0.0,0.024378158152103424
1765492337.8492806,30,978000000,base_link,0.49952858686447144,0.0,0.0,0.0,0.0,0.022727059200406075
1765492337.8892763,31,29000000,base_link,0.49764612317085266,0.0,0.0,0.0,0.0,0.025420043617486954
1765492337.9290824,31,77000000,base_link,0.49953287839889526,0.0,0.0,0.0,0.0,0.02485775016248226
1765492337.989753,31,128000000,base_link,0.4998213052749634,0.0,0.0,0.0,0.0,0.018612952902913094
1765492338.0299609,31,179000000,base_link,0.49946194887161255,0.0,0.0,0.0,0.0,0.016728417947888374
1765492338.0688243,31,227000000,base_link,0.49994081258773804,0.0,0.0,0.0,0.0,0.012127253226935863
1765492338.129256,31,278000000,base_link,0.49945902824401855,0.0,0.0,0.0,0.0,-0.006979530677199364
1765492338.192034,31,326000000,base_link,0.49990636110305786,0.0,0.0,0.0,0.0,-0.02086249180138111
1765492338.2292383,31,374000000,base_link,0.49995678663253784,0.0,0.0,0.0,0.0,-0.03740851581096649
1765492338.2897024,31,422000000,base_link,0.5000361800193787,0.0,0.0,0.0,0.0,-0.0358516164124012
1765492338.3290198,31,470000000,base_link,0.5000119805335999,0.0,0.0,0.0,0.0,-0.04474758356809616
1765492338.3791654,31,521000000,base_link,0.5000081062316895,0.0,0.0,0.0,0.0,-0.051145438104867935
1765492338.4391363,31,569000000,base_link,0.4999988079071045,0.0,0.0,0.0,0.0,-0.04908715561032295
1765492338.479203,31,617000000,base_link,0.4999992251396179,0.0,0.0,0.0,0.0,-0.04728229343891144
1765492338.5190842,31,668000000,base_link,0.4999989867210388,0.0,0.0,0.0,0.0,-0.05351345241069794
1765492338.5793216,31,716000000,base_link,0.49968352913856506,0.0,0.0,0.0,0.0,-0.05806461721658707
1765492338.6390343,31,770000000,base_link,0.4999465346336365,0.0,0.0,0.0,0.0,-0.05340544134378433
1765492338.6791358,31,818000000,base_link,0.499971866607666,0.0,0.0,0.0,0.0,-0.057618677616119385
1765492338.719573,31,866000000,base_link,0.49901437759399414,0.0,0.0,0.0,0.0,-0.055431123822927475
1765492338.789358,31,911000000,base_link,0.4998367428779602,0.0,0.0,0.0,0.0,-0.03525938093662262
1765492338.8195045,31,965000000,base_link,0.49870115518569946,0.0,0.0,0.0,0.0,-0.03512709215283394
1765492338.8894377,32,10000000,base_link,0.49986040592193604,0.0,0.0,0.0,0.0,-0.03251197934150696
1765492338.9293664,32,58000000,base_link,0.49990999698638916,0.0,0.0,0.0,0.0,-0.024843605235219002
1765492338.9687948,32,106000000,base_link,0.5000926852226257,0.0,0.0,0.0,0.0,-0.025350885465741158
1765492339.0496368,32,157000000,base_link,0.5000228881835938,0.0,0.0,0.0,0.0,-0.016624102368950844
1765492339.09001,32,208000000,base_link,0.5000177025794983,0.0,0.0,0.0,0.0,-0.01211424171924591
1765492339.1294768,32,256000000,base_link,0.4999959468841553,0.0,0.0,0.0,0.0,-0.007553864736109972
1765492339.1899297,32,304000000,base_link,0.4999982714653015,0.0,0.0,0.0,0.0,-0.0077713290229439735
1765492339.2398312,32,355000000,base_link,0.4999977946281433,0.0,0.0,0.0,0.0,-0.009591039270162582
1765492339.2796292,32,406000000,base_link,0.49999988079071045,0.0,0.0,0.0,0.0,-0.0032596150413155556
1765492339.339798,32,448000000,base_link,0.49832743406295776,0.0,0.0,0.0,0.0,-0.011388052254915237
1765492339.379227,32,499000000,base_link,0.49943238496780396,0.0,0.0,0.0,0.0,-0.015499461442232132
1765492339.4193556,32,544000000,base_link,0.49923259019851685,0.0,0.0,0.0,0.0,-0.016881925985217094
1765492339.4798226,32,595000000,base_link,0.49998801946640015,0.0,0.0,0.0,0.0,-0.009908106178045273
1765492339.5392525,32,643000000,base_link,0.4990081191062927,0.0,0.0,0.0,0.0,-0.013242476619780064
1765492339.5797622,32,691000000,base_link,0.49990153312683105,0.0,0.0,0.0,0.0,-0.004732981324195862
1765492339.6190648,32,742000000,base_link,0.49992436170578003,0.0,0.0,0.0,0.0,-0.005707529839128256
1765492339.689098,32,790000000,base_link,0.5000714063644409,0.0,0.0,0.0,0.0,-0.0031785122118890285
1765492339.729248,32,841000000,base_link,0.49980980157852173,0.0,0.0,0.0,0.0,-0.003282711375504732
1765492339.7904365,32,889000000,base_link,0.49997907876968384,0.0,0.0,0.0,0.0,0.0011119539849460125
1765492339.8292716,32,940000000,base_link,0.4999784231185913,0.0,0.0,0.0,0.0,-0.008728772401809692
1765492339.8711782,32,988000000,base_link,0.5000123381614685,0.0,0.0,0.0,0.0,-0.005993845872581005
1765492339.9289746,33,33000000,base_link,0.5000026822090149,0.0,0.0,0.0,0.0,-0.014326869510114193
1765492339.9893136,33,84000000,base_link,0.5000031590461731,0.0,0.0,0.0,0.0,-0.013627957552671432
1765492340.0392008,33,132000000,base_link,0.4972797632217407,0.0,0.0,0.0,0.0,-0.012703772634267807
1765492340.0700445,33,180000000,base_link,0.49954068660736084,0.0,0.0,0.0,0.0,-0.009100320748984814
1765492340.1397104,33,234000000,base_link,0.4997572898864746,0.0,0.0,0.0,0.0,-0.011487342417240143
1765492340.1791599,33,279000000,base_link,0.5001785159111023,0.0,0.0,0.0,0.0,-0.00689490744844079
1765492340.239535,33,330000000,base_link,0.5000571608543396,0.0,0.0,0.0,0.0,-0.005377564113587141
1765492340.2797759,33,381000000,base_link,0.5000424981117249,0.0,0.0,0.0,0.0,-0.008486004546284676
1765492340.319471,33,432000000,base_link,0.4999944567680359,0.0,0.0,0.0,0.0,-0.0035603989381343126
1765492340.3891795,33,477000000,base_link,0.4999964237213135,0.0,0.0,0.0,0.0,-0.00543634407222271
1765492340.4496562,33,519000000,base_link,0.4999951720237732,0.0,0.0,0.0,0.0,-0.008035464212298393
1765492340.4894748,33,567000000,base_link,0.499999463558197,0.0,0.0,0.0,0.0,0.012887583114206791
1765492340.5303137,33,621000000,base_link,0.49997037649154663,0.0,0.0,0.0,0.0,0.022431403398513794
1765492340.5903344,33,669000000,base_link,0.49977976083755493,0.0,0.0,0.0,0.0,0.03092135488986969
1765492340.6291437,33,717000000,base_link,0.4999610185623169,0.0,0.0,0.0,0.0,0.03446793928742409
1765492340.668978,33,768000000,base_link,0.4999827742576599,0.0,0.0,0.0,0.0,0.03959808126091957
1765492340.729095,33,816000000,base_link,0.5000147223472595,0.0,0.0,0.0,0.0,0.03870426118373871
1765492340.7897313,33,867000000,base_link,0.5000049471855164,0.0,0.0,0.0,0.0,0.03798173740506172
1765492340.8417418,33,912000000,base_link,0.5000032782554626,0.0,0.0,0.0,0.0,0.04642510414123535
1765492340.900747,33,960000000,base_link,0.499999463558197,0.0,0.0,0.0,0.0,0.04903295636177063
1765492340.9392483,34,5000000,base_link,0.49999964237213135,0.0,0.0,0.0,0.0,0.04625200480222702
1765492340.9794276,34,50000000,base_link,0.4999995827674866,0.0,0.0,0.0,0.0,0.04465845599770546
1765492341.030358,34,101000000,base_link,0.4999999403953552,0.0,0.0,0.0,0.0,0.03916891664266586
1765492341.089234,34,149000000,base_link,0.5,0.0,0.0,0.0,0.0,0.037957582622766495
1765492341.1291173,34,203000000,base_link,0.49867671728134155,0.0,0.0,0.0,0.0,0.03501709923148155
1765492341.1694467,34,251000000,base_link,0.49977654218673706,0.0,0.0,0.0,0.0,0.03125367313623428
1765492341.2494023,34,302000000,base_link,0.4998820424079895,0.0,0.0,0.0,0.0,0.006150554865598679
1765492341.2891135,34,347000000,base_link,0.4988866448402405,0.0,0.0,0.0,0.0,-0.004938021302223206
1765492341.329472,34,401000000,base_link,0.4998251795768738,0.0,0.0,0.0,0.0,-0.005697726737707853
1765492341.390525,34,446000000,base_link,0.49991375207901,0.0,0.0,0.0,0.0,-0.003636865643784404
1765492341.439512,34,494000000,base_link,0.5000578761100769,0.0,0.0,0.0,0.0,-0.013594265095889568
1765492341.4793937,34,539000000,base_link,0.500020444393158,0.0,0.0,0.0,0.0,-0.022660598158836365
1765492341.5194676,34,587000000,base_link,0.5000147819519043,0.0,0.0,0.0,0.0,-0.0257868692278862
1765492341.5795639,34,635000000,base_link,0.49870556592941284,0.0,0.0,0.0,0.0,-0.03599388524889946
1765492341.639662,34,689000000,base_link,0.49978047609329224,0.0,0.0,0.0,0.0,-0.032690782099962234
1765492341.6796265,34,734000000,base_link,0.49988311529159546,0.0,0.0,0.0,0.0,-0.03684552386403084
1765492341.7393837,34,785000000,base_link,0.5000845789909363,0.0,0.0,0.0,0.0,-0.0430745892226696
1765492341.779375,34,833000000,base_link,0.5000271201133728,0.0,0.0,0.0,0.0,-0.04010686278343201
1765492341.8395288,34,884000000,base_link,0.5000203251838684,0.0,0.0,0.0,0.0,-0.043956074863672256
1765492341.8896153,34,932000000,base_link,0.4999973773956299,0.0,0.0,0.0,0.0,-0.04045486077666283
1765492341.9194348,34,983000000,base_link,0.49982011318206787,0.0,0.0,0.0,0.0,-0.04020415619015694
1765492341.9693844,35,31000000,base_link,0.49996763467788696,0.0,0.0,0.0,0.0,-0.03874363377690315
1765492342.0296059,35,76000000,base_link,0.49998384714126587,0.0,0.0,0.0,0.0,-0.04480302333831787
1765492342.0901432,35,124000000,base_link,0.5000116229057312,0.0,0.0,0.0,0.0,-0.045571718364953995
1765492342.1292326,35,175000000,base_link,0.5000038743019104,0.0,0.0,0.0,0.0,-0.046310458332300186
1765492342.189475,35,226000000,base_link,0.5000028014183044,0.0,0.0,0.0,0.0,-0.03568156063556671
1765492342.2298396,35,277000000,base_link,0.49999964237213135,0.0,0.0,0.0,0.0,0.006901629269123077
1765492342.269006,35,322000000,base_link,0.4999997019767761,0.0,0.0,0.0,0.0,0.015647297725081444
1765492342.339107,35,376000000,base_link,0.49999964237213135,0.0,0.0,0.0,0.0,0.030350832268595695
1765492342.379488,35,421000000,base_link,0.4999999403953552,0.0,0.0,0.0,0.0,0.037243280559778214
1765492342.4188416,35,469000000,base_link,0.5,0.0,0.0,0.0,0.0,0.04932018741965294
1765492342.4959383,35,520000000,base_link,0.5000000596046448,0.0,0.0,0.0,0.0,0.052407365292310715
1765492342.5391273,35,565000000,base_link,0.4996938109397888,0.0,0.0,0.0,0.0,0.0581490620970726
1765492342.5795083,35,616000000,base_link,0.49922263622283936,0.0,0.0,0.0,0.0,0.06301307678222656
1765492342.6396816,35,667000000,base_link,0.49985015392303467,0.0,0.0,0.0,0.0,0.07112918049097061
1765492342.6817367,35,712000000,base_link,0.499955415725708,0.0,0.0,0.0,0.0,0.07082731276750565
1765492342.7189136,35,763000000,base_link,0.5000540614128113,0.0,0.0,0.0,0.0,0.07062114030122757
1765492342.7902346,35,811000000,base_link,0.4989722967147827,0.0,0.0,0.0,0.0,0.07147792726755142
1765492342.8295193,35,859000000,base_link,0.49918031692504883,0.0,0.0,0.0,0.0,0.06986178457736969
1765492342.8689046,35,910000000,base_link,0.4997944235801697,0.0,0.0,0.0,0.0,0.07227496057748795
1765492342.9494205,35,958000000,base_link,0.5000090003013611,0.0,0.0,0.0,0.0,0.07207489013671875
1765492342.990425,36,3000000,base_link,0.4991800785064697,0.0,0.0,0.0,0.0,0.07376479357481003
1765492343.039412,36,57000000,base_link,0.4998807907104492,0.0,0.0,0.0,0.0,0.06521004438400269
1765492343.079469,36,99000000,base_link,0.49992936849594116,0.0,0.0,0.0,0.0,0.06792790442705154
1765492343.1391525,36,147000000,base_link,0.5000553727149963,0.0,0.0,0.0,0.0,0.0678422823548317
1765492343.1800363,36,198000000,base_link,0.500015914440155,0.0,0.0,0.0,0.0,0.058826837688684464
1765492343.2195685,36,252000000,base_link,0.5000124573707581,0.0,0.0,0.0,0.0,0.05009784549474716
1765492343.2796059,36,297000000,base_link,0.499234139919281,0.0,0.0,0.0,0.0,0.029273880645632744
1765492343.3193264,36,348000000,base_link,0.4998700022697449,0.0,0.0,0.0,0.0,0.023308804258704185
1765492343.3894129,36,393000000,base_link,0.4999305009841919,0.0,0.0,0.0,0.0,0.011460862122476101
1765492343.4492424,36,441000000,base_link,0.5000499486923218,0.0,0.0,0.0,0.0,-0.0018028980121016502
1765492343.4894643,36,489000000,base_link,0.5000160336494446,0.0,0.0,0.0,0.0,-0.011635730043053627
1765492343.529239,36,543000000,base_link,0.5000120401382446,0.0,0.0,0.0,0.0,-0.01830676943063736
1765492343.569073,36,588000000,base_link,0.49999845027923584,0.0,0.0,0.0,0.0,-0.02065899968147278
1765492343.6299837,36,633000000,base_link,0.4999989867210388,0.0,0.0,0.0,0.0,-0.02078460156917572
1765492343.6694546,36,681000000,base_link,0.49999862909317017,0.0,0.0,0.0,0.0,-0.025604669004678726
1765492343.709086,36,732000000,base_link,0.4999998211860657,0.0,0.0,0.0,0.0,-0.0271421167999506
1765492343.7998161,36,780000000,base_link,0.4999999403953552,0.0,0.0,0.0,0.0,-0.029908720403909683
1765492343.8424273,36,831000000,base_link,0.5000000596046448,0.0,0.0,0.0,0.0,-0.03794993832707405
1765492343.90013,36,879000000,base_link,0.4997486472129822,0.0,0.0,0.0,0.0,-0.04053869843482971
1765492343.9400766,36,930000000,base_link,0.49983853101730347,0.0,0.0,0.0,0.0,-0.03974534943699837
1765492343.9793346,36,981000000,base_link,0.49995750188827515,0.0,0.0,0.0,0.0,-0.044834453612565994
1765492344.0394366,37,29000000,base_link,0.500005841255188,0.0,0.0,0.0,0.0,-0.04592132940888405
1765492344.0810974,37,80000000,base_link,0.5000130534172058,0.0,0.0,0.0,0.0,-0.043552204966545105
1765492344.1190512,37,128000000,base_link,0.500006377696991,0.0,0.0,0.0,0.0,-0.0459161102771759
1765492344.1693482,37,170000000,base_link,0.5000013113021851,0.0,0.0,0.0,0.0,-0.04028196260333061
1765492344.250069,37,221000000,base_link,0.49999940395355225,0.0,0.0,0.0,0.0,-0.0398755818605423
1765492344.2891417,37,269000000,base_link,0.49999940395355225,0.0,0.0,0.0,0.0,-0.040300920605659485
1765492344.3302467,37,320000000,base_link,0.4999997019767761,0.0,0.0,0.0,0.0,-0.023612817749381065
1765492344.3899562,37,371000000,base_link,0.4999769330024719,0.0,0.0,0.0,0.0,-0.009354964829981327
1765492344.4290926,37,413000000,base_link,0.4999961256980896,0.0,0.0,0.0,0.0,-0.00842357613146305
1765492344.4690864,37,461000000,base_link,0.49999797344207764,0.0,0.0,0.0,0.0,-0.009187807328999043
1765492344.539321,37,515000000,base_link,0.49918097257614136,0.0,0.0,0.0,0.0,-0.008604935370385647
1765492344.5795074,37,563000000,base_link,0.4998618960380554,0.0,0.0,0.0,0.0,-0.009046655148267746
1765492344.6095834,37,608000000,base_link,0.49992722272872925,0.0,0.0,0.0,0.0,-0.009436010383069515
1765492344.6996195,37,659000000,base_link,0.5000538229942322,0.0,0.0,0.0,0.0,-0.008463221602141857
1765492344.739128,37,704000000,base_link,0.5000172257423401,0.0,0.0,0.0,0.0,-0.007863767445087433
1765492344.780155,37,752000000,base_link,0.5000127553939819,0.0,0.0,0.0,0.0,-0.006118951365351677
1765492344.8497558,37,803000000,base_link,0.4999982714653015,0.0,0.0,0.0,0.0,0.0020842794328927994
1765492344.8895292,37,854000000,base_link,0.49999886751174927,0.0,0.0,0.0,0.0,0.0032276681158691645
1765492344.9300718,37,899000000,base_link,0.4999985098838806,0.0,0.0,0.0,0.0,0.0021801739931106567
1765492344.9891927,37,950000000,base_link,0.4999998211860657,0.0,0.0,0.0,0.0,0.0004718510899692774
1765492345.0290565,37,998000000,base_link,0.49997836351394653,0.0,0.0,0.0,0.0,0.00034342589788138866
1765492345.0894163,38,46000000,base_link,0.4999964237213135,0.0,0.0,0.0,0.0,-0.007752830162644386
1765492345.1493828,38,100000000,base_link,0.4999980926513672,0.0,0.0,0.0,0.0,-0.004299790598452091
1765492345.193867,38,145000000,base_link,0.49981898069381714,0.0,0.0,0.0,0.0,0.003634166670963168
1765492345.2392702,38,202000000,base_link,0.4999696612358093,0.0,0.0,0.0,0.0,-0.004165620543062687
1765492345.2805667,38,238000000,base_link,0.49998408555984497,0.0,0.0,0.0,0.0,-0.015096781775355339
1765492345.3398697,38,292000000,base_link,0.5000119209289551,0.0,0.0,0.0,0.0,-0.027927719056606293
1765492345.379551,38,337000000,base_link,0.5000037550926208,0.0,0.0,0.0,0.0,-0.038292597979307175
1765492345.4191158,38,388000000,base_link,0.4999174475669861,0.0,0.0,0.0,0.0,-0.04177674651145935
1765492345.479472,38,436000000,base_link,0.4999851584434509,0.0,0.0,0.0,0.0,-0.04863894730806351
1765492345.5394824,38,484000000,base_link,0.49999213218688965,0.0,0.0,0.0,0.0,-0.05025195702910423
1765492345.5808876,38,532000000,base_link,0.500005304813385,0.0,0.0,0.0,0.0,-0.05403744801878929
1765492345.6495173,38,583000000,base_link,0.499764621257782,0.0,0.0,0.0,0.0,-0.06023848429322243
1765492345.689142,38,631000000,base_link,0.49996131658554077,0.0,0.0,0.0,0.0,-0.05971376970410347
1765492345.7306616,38,679000000,base_link,0.4999787211418152,0.0,0.0,0.0,0.0,-0.055859293788671494
1765492345.7690053,38,727000000,base_link,0.5000154376029968,0.0,0.0,0.0,0.0,-0.057761404663324356
1765492345.8301928,38,778000000,base_link,0.5000048279762268,0.0,0.0,0.0,0.0,-0.05646159499883652
1765492345.868973,38,823000000,base_link,0.5000036358833313,0.0,0.0,0.0,0.0,-0.062023378908634186
1765492345.9092011,38,871000000,base_link,0.4987605810165405,0.0,0.0,0.0,0.0,-0.0558958500623703
1765492345.9999707,38,922000000,base_link,0.49852222204208374,0.0,0.0,0.0,0.0,-0.05257212743163109
1765492346.0400074,38,973000000,base_link,0.49967503547668457,0.0,0.0,0.0,0.0,-0.04647137597203255
1765492346.0891051,39,21000000,base_link,0.4998950958251953,0.0,0.0,0.0,0.0,-0.04470916837453842
1765492346.1390758,39,69000000,base_link,0.5000733137130737,0.0,0.0,0.0,0.0,-0.03786606341600418
1765492346.1792254,39,120000000,base_link,0.5000355839729309,0.0,0.0,0.0,0.0,-0.03593781962990761
1765492346.2396169,39,171000000,base_link,0.5000199675559998,0.0,0.0,0.0,0.0,-0.028764724731445312
1765492346.2799685,39,219000000,base_link,0.49999886751174927,0.0,0.0,0.0,0.0,-0.019009631127119064
1765492346.3196347,39,267000000,base_link,0.4999977946281433,0.0,0.0,0.0,0.0,-0.012752395123243332
1765492346.3806314,39,315000000,base_link,0.49999767541885376,0.0,0.0,0.0,0.0,0.004675358533859253
1765492346.4394832,39,366000000,base_link,0.4999995827674866,0.0,0.0,0.0,0.0,0.008100096136331558
1765492346.4794996,39,411000000,base_link,0.4999999403953552,0.0,0.0,0.0,0.0,0.014844884164631367
1765492346.5397289,39,462000000,base_link,0.4996967315673828,0.0,0.0,0.0,0.0,0.016240902245044708
1765492346.5791767,39,510000000,base_link,0.49994879961013794,0.0,0.0,0.0,0.0,0.018333636224269867
1765492346.629481,39,561000000,base_link,0.499972939491272,0.0,0.0,0.0,0.0,0.025990547612309456
1765492346.68996,39,606000000,base_link,0.5000198483467102,0.0,0.0,0.0,0.0,0.029369091615080833
1765492346.7291777,39,654000000,base_link,0.500006377696991,0.0,0.0,0.0,0.0,0.03220096975564957
1765492346.7688823,39,708000000,base_link,0.5000047087669373,0.0,0.0,0.0,0.0,0.040433548390865326
1765492346.8495204,39,759000000,base_link,0.49999934434890747,0.0,0.0,0.0,0.0,0.042712341994047165
1765492346.8890889,39,807000000,base_link,0.4999995827674866,0.0,0.0,0.0,0.0,0.045951154083013535
1765492346.929696,39,858000000,base_link,0.499999463558197,0.0,0.0,0.0,0.0,0.041400473564863205
1765492346.990745,39,900000000,base_link,0.4999999403953552,0.0,0.0,0.0,0.0,0.04146529361605644
1765492347.0392869,39,951000000,base_link,0.5,0.0,0.0,0.0,0.0,0.04761911928653717
1765492347.0793903,39,999000000,base_link,0.5000000596046448,0.0,0.0,0.0,0.0,0.05090975761413574
1765492347.1392343,40,50000000,base_link,0.4999721646308899,0.0,0.0,0.0,0.0,0.04768217355012894
1765492347.1791158,40,98000000,base_link,0.49999529123306274,0.0,0.0,0.0,0.0,0.04638262838125229
1765492347.24078,40,146000000,base_link,0.499175488948822,0.0,0.0,0.0,0.0,0.040306318551301956
1765492347.3001466,40,200000000,base_link,0.49986302852630615,0.0,0.0,0.0,0.0,0.04048754274845123
1765492347.3392074,40,251000000,base_link,0.4999273419380188,0.0,0.0,0.0,0.0,0.03880057856440544
1765492347.380088,40,299000000,base_link,0.5000543594360352,0.0,0.0,0.0,0.0,0.03822486102581024
1765492347.430254,40,347000000,base_link,0.5000172257423401,0.0,0.0,0.0,0.0,0.015662427991628647
1765492347.4900405,40,386000000,base_link,0.5000128149986267,0.0,0.0,0.0,0.0,0.008244006894528866
1765492347.5290868,40,437000000,base_link,0.4999982714653015,0.0,0.0,0.0,0.0,0.0025461295153945684
1765492347.56888,40,488000000,base_link,0.4995037913322449,0.0,0.0,0.0,0.0,-0.003463922766968608
1765492347.62941,40,536000000,base_link,0.4999149441719055,0.0,0.0,0.0,0.0,-0.005833894480019808
1765492347.7000482,40,587000000,base_link,0.4999557137489319,0.0,0.0,0.0,0.0,-0.003190475981682539
1765492347.739368,40,635000000,base_link,0.5000324845314026,0.0,0.0,0.0,0.0,-0.009163598529994488
1765492347.8105478,40,677000000,base_link,0.5000105500221252,0.0,0.0,0.0,0.0,-0.015083447098731995
1765492347.8414826,40,731000000,base_link,0.5000078082084656,0.0,0.0,0.0,0.0,-0.021193623542785645
1765492347.8896453,40,773000000,base_link,0.4999989867210388,0.0,0.0,0.0,0.0,-0.01712055876851082
1765492347.9294302,40,824000000,base_link,0.49999934434890747,0.0,0.0,0.0,0.0,-0.01957039348781109
1765492347.969131,40,863000000,base_link,0.49999910593032837,0.0,0.0,0.0,0.0,-0.031453341245651245
1765492348.0400064,40,911000000,base_link,0.49999988079071045,0.0,0.0,0.0,0.0,-0.036846596747636795
1765492348.0792356,40,959000000,base_link,0.4999999403953552,0.0,0.0,0.0,0.0,-0.035492174327373505
1765492348.1391072,41,7000000,base_link,0.5000000596046448,0.0,0.0,0.0,0.0,-0.03815653175115585
1765492348.2004435,41,58000000,base_link,0.5,0.0,0.0,0.0,0.0,-0.03671683371067047
1765492348.2396843,41,106000000,base_link,0.4999999403953552,0.0,0.0,0.0,0.0,-0.03458793833851814
1765492348.280384,41,157000000,base_link,0.49985623359680176,0.0,0.0,0.0,0.0,-0.040244314819574356
1765492348.3398216,41,214000000,base_link,0.4999757409095764,0.0,0.0,0.0,0.0,-0.0367305614054203
1765492348.3806605,41,253000000,base_link,0.4999871850013733,0.0,0.0,0.0,0.0,-0.04329340159893036
1765492348.4302447,41,307000000,base_link,0.5000094175338745,0.0,0.0,0.0,0.0,-0.036244507879018784
1765492348.4688656,41,352000000,base_link,0.5000030398368835,0.0,0.0,0.0,0.0,-0.02469014562666416
1765492348.5492542,41,397000000,base_link,0.5000022053718567,0.0,0.0,0.0,0.0,-0.01733306050300598
1765492348.589341,41,448000000,base_link,0.49915677309036255,0.0,0.0,0.0,0.0,-0.01310325413942337
1765492348.6289852,41,499000000,base_link,0.49985748529434204,0.0,0.0,0.0,0.0,-0.0005898146191611886
1765492348.6893878,41,547000000,base_link,0.4995201826095581,0.0,0.0,0.0,0.0,0.0010309972567483783
1765492348.7303934,41,598000000,base_link,0.4999869465827942,0.0,0.0,0.0,0.0,0.003702811198309064
1765492348.7688525,41,649000000,base_link,0.49998170137405396,0.0,0.0,0.0,0.0,0.009340135380625725
1765492348.8395462,41,697000000,base_link,0.5000396966934204,0.0,0.0,0.0,0.0,0.011411696672439575
1765492348.8814135,41,739000000,base_link,0.5000067949295044,0.0,0.0,0.0,0.0,0.013546021655201912
1765492348.9190207,41,787000000,base_link,0.4997095465660095,0.0,0.0,0.0,0.0,0.01707027107477188
1765492348.9899147,41,835000000,base_link,0.499947726726532,0.0,0.0,0.0,0.0,0.014450157061219215
1765492349.0289931,41,874000000,base_link,0.4996245503425598,0.0,0.0,0.0,0.0,0.012482952326536179
1765492349.0997648,41,922000000,base_link,0.4999598264694214,0.0,0.0,0.0,0.0,0.015612647868692875
1765492349.1394787,41,970000000,base_link,0.49997520446777344,0.0,0.0,0.0,0.0,0.014778679236769676
1765492349.181232,42,21000000,base_link,0.49935382604599,0.0,0.0,0.0,0.0,0.021340621635317802
1765492349.239244,42,72000000,base_link,0.4998930096626282,0.0,0.0,0.0,0.0,0.02223745360970497
1765492349.2801015,42,123000000,base_link,0.4999449849128723,0.0,0.0,0.0,0.0,0.020657474175095558
1765492349.3191535,42,171000000,base_link,0.5000429749488831,0.0,0.0,0.0,0.0,0.017739253118634224
1765492349.3795273,42,219000000,base_link,0.5000136494636536,0.0,0.0,0.0,0.0,0.025473231449723244
1765492349.4391735,42,264000000,base_link,0.5000098943710327,0.0,0.0,0.0,0.0,0.026162710040807724
1765492349.479591,42,318000000,base_link,0.4999985694885254,0.0,0.0,0.0,0.0,0.0010209658648818731
1765492349.550992,42,366000000,base_link,0.49952107667922974,0.0,0.0,0.0,0.0,-0.003326497273519635
1765492349.5899231,42,411000000,base_link,0.4999181628227234,0.0,0.0,0.0,0.0,-0.012402752414345741
1765492349.630271,42,459000000,base_link,0.49995726346969604,0.0,0.0,0.0,0.0,-0.014849822036921978
1765492349.689035,42,507000000,base_link,0.5000313520431519,0.0,0.0,0.0,0.0,-0.015244308859109879
1765492349.7295694,42,555000000,base_link,0.5000101327896118,0.0,0.0,0.0,0.0,-0.016914159059524536
1765492349.7692053,42,609000000,base_link,0.5000074505805969,0.0,0.0,0.0,0.0,-0.0158416535705328
1765492349.8495955,42,654000000,base_link,0.4999989867210388,0.0,0.0,0.0,0.0,-0.019915424287319183
1765492349.889841,42,705000000,base_link,0.49999934434890747,0.0,0.0,0.0,0.0,-0.023586878553032875
1765492349.9299178,42,756000000,base_link,0.49999910593032837,0.0,0.0,0.0,0.0,-0.027195094153285027
1765492349.9901943,42,804000000,base_link,0.49999988079071045,0.0,0.0,0.0,0.0,-0.026271406561136246
1765492350.0400927,42,855000000,base_link,0.4999999403953552,0.0,0.0,0.0,0.0,-0.022217469289898872
1765492350.0796783,42,897000000,base_link,0.5000000596046448,0.0,0.0,0.0,0.0,-0.00675933575257659
1765492350.139521,42,945000000,base_link,0.5,0.0,0.0,0.0,0.0,-0.007244647014886141
1765492350.1796775,42,996000000,base_link,0.5000376105308533,0.0,0.0,0.0,0.0,-0.0019276883685961366
1765492350.2189617,43,44000000,base_link,0.499866247177124,0.0,0.0,0.0,0.0,0.0001561277313157916
1765492350.3015966,43,95000000,base_link,0.4999796748161316,0.0,0.0,0.0,0.0,0.004994223825633526
1765492350.3392658,43,143000000,base_link,0.4999850392341614,0.0,0.0,0.0,0.0,0.0015597474994137883
1765492350.3903155,43,194000000,base_link,0.5000084042549133,0.0,0.0,0.0,0.0,0.003018766175955534
1765492350.4295194,43,239000000,base_link,0.49977177381515503,0.0,0.0,0.0,0.0,0.00918086338788271
1765492350.489829,43,290000000,base_link,0.4991409182548523,0.0,0.0,0.0,0.0,0.006089896894991398
1765492350.529866,43,338000000,base_link,0.49984031915664673,0.0,0.0,0.0,0.0,-0.004318328108638525
1765492350.57427,43,386000000,base_link,0.49994170665740967,0.0,0.0,0.0,0.0,-0.013034108094871044
1765492350.6294923,43,437000000,base_link,0.5000585913658142,0.0,0.0,0.0,0.0,-0.013036273419857025
1765492350.6689157,43,482000000,base_link,0.5000208616256714,0.0,0.0,0.0,0.0,-0.015125980600714684
1765492350.7314336,43,533000000,base_link,0.5000123381614685,0.0,0.0,0.0,0.0,-0.016476798802614212
1765492350.78946,43,584000000,base_link,0.4999980330467224,0.0,0.0,0.0,0.0,-0.013581937178969383
1765492350.839621,43,635000000,base_link,0.4999985098838806,0.0,0.0,0.0,0.0,-0.00823928788304329
1765492350.8797545,43,677000000,base_link,0.4999985098838806,0.0,0.0,0.0,0.0,-0.011763774789869785
1765492350.9410934,43,731000000,base_link,0.4985014796257019,0.0,0.0,0.0,0.0,-0.009667713195085526
1765492350.9804683,43,779000000,base_link,0.49974703788757324,0.0,0.0,0.0,0.0,-0.010568412020802498
1765492351.0191126,43,827000000,base_link,0.49942177534103394,0.0,0.0,0.0,0.0,-0.015844346955418587
1765492351.0801556,43,878000000,base_link,0.5000232458114624,0.0,0.0,0.0,0.0,-0.010116856545209885
1765492351.1391418,43,926000000,base_link,0.49999183416366577,0.0,0.0,0.0,0.0,-0.0036639845930039883
1765492351.1792245,43,974000000,base_link,0.5000525712966919,0.0,0.0,0.0,0.0,0.005541125778108835
1765492351.2390537,44,22000000,base_link,0.5000062584877014,0.0,0.0,0.0,0.0,0.008787175640463829
1765492351.2809951,44,73000000,base_link,0.5000049471855164,0.0,0.0,0.0,0.0,0.0127407256513834
1765492351.329372,44,118000000,base_link,0.4996529817581177,0.0,0.0,0.0,0.0,0.015916913747787476
1765492351.3926387,44,169000000,base_link,0.4999411702156067,0.0,0.0,0.0,0.0,0.018488746136426926
1765492351.4294937,44,214000000,base_link,0.49996858835220337,0.0,0.0,0.0,0.0,0.01591523177921772
1765492351.468942,44,265000000,base_link,0.4969516396522522,0.0,0.0,0.0,0.0,0.0229194276034832
1765492351.5293622,44,316000000,base_link,0.4994887709617615,0.0,0.0,0.0,0.0,0.004382775165140629
1765492351.5894418,44,364000000,base_link,0.49973177909851074,0.0,0.0,0.0,0.0,-0.007210991345345974
1765492351.6290846,44,412000000,base_link,0.5002008676528931,0.0,0.0,0.0,0.0,-0.006393779069185257
1765492351.701024,44,463000000,base_link,0.5000641345977783,0.0,0.0,0.0,0.0,-0.008693283423781395
1765492351.7416353,44,514000000,base_link,0.5000473856925964,0.0,0.0,0.0,0.0,-0.02541516348719597
1765492351.7796385,44,562000000,base_link,0.49999362230300903,0.0,0.0,0.0,0.0,-0.031274303793907166
1765492351.839559,44,610000000,base_link,0.49999600648880005,0.0,0.0,0.0,0.0,-0.02853812277317047
1765492351.8796198,44,658000000,base_link,0.4999946355819702,0.0,0.0,0.0,0.0,-0.028538964688777924
1765492351.9189918,44,706000000,base_link,0.49973469972610474,0.0,0.0,0.0,0.0,-0.023281939327716827
1765492351.99932,44,754000000,base_link,0.4999552369117737,0.0,0.0,0.0,0.0,-0.03582112118601799
1765492352.0393531,44,805000000,base_link,0.49997687339782715,0.0,0.0,0.0,0.0,-0.03908393532037735
1765492352.0803468,44,853000000,base_link,0.5000174641609192,0.0,0.0,0.0,0.0,-0.039130937308073044
1765492352.139102,44,904000000,base_link,0.5000056028366089,0.0,0.0,0.0,0.0,-0.03028079867362976
1765492352.1805272,44,952000000,base_link,0.5000041127204895,0.0,0.0,0.0,0.0,-0.03340592607855797
1765492352.229569,45,6000000,base_link,0.49999940395355225,0.0,0.0,0.0,0.0,-0.03057682141661644
1765492352.2688177,45,45000000,base_link,0.49935638904571533,0.0,0.0,0.0,0.0,-0.026118149980902672
1765492352.3298302,45,93000000,base_link,0.4997572898864746,0.0,0.0,0.0,0.0,-0.022715691477060318
1765492352.3811924,45,144000000,base_link,0.4999200701713562,0.0,0.0,0.0,0.0,-0.023309890180826187
1765492352.439842,45,195000000,base_link,0.5000303387641907,0.0,0.0,0.0,0.0,-0.018522772938013077
1765492352.5006084,45,240000000,base_link,0.5000223517417908,0.0,0.0,0.0,0.0,-0.015237829647958279
1765492352.5390744,45,288000000,base_link,0.5000128149986267,0.0,0.0,0.0,0.0,-0.004328366369009018
1765492352.5791101,45,339000000,base_link,0.484505832195282,0.0,0.0,0.0,0.0,-0.16096502542495728
1765492352.6394734,45,387000000,base_link,0.4814779758453369,0.0,0.0,0.0,0.0,-0.19249141216278076
1765492352.679523,45,438000000,base_link,0.4825837314128876,0.0,0.0,0.0,0.0,-0.2114662528038025
1765492352.7298741,45,486000000,base_link,0.4819037914276123,0.0,0.0,0.0,0.0,-0.22185130417346954
1765492352.769093,45,528000000,base_link,0.47871726751327515,0.0,0.0,0.0,0.0,-0.25052231550216675
1765492352.8290539,45,582000000,base_link,0.4792570173740387,0.0,0.0,0.0,0.0,-0.2666507959365845
1765492352.8894613,45,627000000,base_link,0.4818311333656311,0.0,0.0,0.0,0.0,-0.2878952920436859
1765492352.9503455,45,678000000,base_link,0.4845576286315918,0.0,0.0,0.0,0.0,-0.2966662049293518
1765492352.989207,45,723000000,base_link,0.49190467596054077,0.0,0.0,0.0,0.0,-0.29582151770591736
1765492353.0306332,45,777000000,base_link,0.49514448642730713,0.0,0.0,0.0,0.0,-0.2964482009410858
1765492353.089233,45,822000000,base_link,0.49781936407089233,0.0,0.0,0.0,0.0,-0.29951226711273193
1765492353.1292422,45,873000000,base_link,0.49797290563583374,0.0,0.0,0.0,0.0,-0.30740007758140564
1765492353.169582,45,921000000,base_link,0.49958866834640503,0.0,0.0,0.0,0.0,-0.30671581625938416
1765492353.2290926,45,972000000,base_link,0.5000059008598328,0.0,0.0,0.0,0.0,-0.297473669052124
1765492353.2903783,46,23000000,base_link,0.4994392395019531,0.0,0.0,0.0,0.0,-0.2863227128982544
1765492353.3396416,46,71000000,base_link,0.49905329942703247,0.0,0.0,0.0,0.0,-0.27873772382736206
1765492353.4019468,46,125000000,base_link,0.49980562925338745,0.0,0.0,0.0,0.0,-0.2722996771335602
1765492353.4390557,46,167000000,base_link,0.4993175268173218,0.0,0.0,0.0,0.0,-0.25980344414711
1765492353.4895818,46,215000000,base_link,0.4999590516090393,0.0,0.0,0.0,0.0,-0.25676196813583374
1765492353.5191402,46,263000000,base_link,0.4999694228172302,0.0,0.0,0.0,0.0,-0.24702481925487518
1765492353.5898423,46,311000000,base_link,0.5000544190406799,0.0,0.0,0.0,0.0,-0.16590803861618042
1765492353.6194901,46,362000000,base_link,0.49996691942214966,0.0,0.0,0.0,0.0,-0.1405211091041565
1765492353.6688383,46,407000000,base_link,0.4996112287044525,0.0,0.0,0.0,0.0,-0.11655174940824509
1765492353.751044,46,458000000,base_link,0.49918055534362793,0.0,0.0,0.0,0.0,-0.10072072595357895
1765492353.789736,46,512000000,base_link,0.4991176724433899,0.0,0.0,0.0,0.0,-0.070802703499794
1765492353.8290281,46,557000000,base_link,0.499539315700531,0.0,0.0,0.0,0.0,-0.0552365668118
1765492353.8892155,46,605000000,base_link,0.49979013204574585,0.0,0.0,0.0,0.0,-0.04003848508000374
1765492353.929423,46,656000000,base_link,0.4999966621398926,0.0,0.0,0.0,0.0,-0.025718940421938896
1765492353.9693134,46,701000000,base_link,0.5000285506248474,0.0,0.0,0.0,0.0,-0.03966908156871796
1765492354.030331,46,749000000,base_link,0.5000236630439758,0.0,0.0,0.0,0.0,-0.04503978416323662
1765492354.07903,46,800000000,base_link,0.5000060200691223,0.0,0.0,0.0,0.0,-0.042656369507312775
1765492354.109087,46,848000000,base_link,0.4999998211860657,0.0,0.0,0.0,0.0,-0.02647104486823082
1765492354.1996114,46,896000000,base_link,0.49999821186065674,0.0,0.0,0.0,0.0,-0.03333894908428192
1765492354.2391295,46,950000000,base_link,0.49999910593032837,0.0,0.0,0.0,0.0,-0.025215744972229004
1765492354.2796502,46,998000000,base_link,0.4999997615814209,0.0,0.0,0.0,0.0,-0.020093373954296112
1765492354.3395245,47,49000000,base_link,0.5000000596046448,0.0,0.0,0.0,0.0,-0.014186989516019821
1765492354.3795195,47,94000000,base_link,0.5000000596046448,0.0,0.0,0.0,0.0,-0.008782604709267616
1765492354.4192774,47,151000000,base_link,0.5,0.0,0.0,0.0,0.0,-0.007175996899604797
1765492354.4891503,47,187000000,base_link,0.4999999403953552,0.0,0.0,0.0,0.0,-0.006701657082885504
1765492354.529043,47,238000000,base_link,0.49951523542404175,0.0,0.0,0.0,0.0,-0.0014507141895592213
1765492354.5893035,47,286000000,base_link,0.49980777502059937,0.0,0.0,0.0,0.0,0.0019258635584264994
1765492354.6491735,47,343000000,base_link,0.4999381899833679,0.0,0.0,0.0,0.0,0.0165578480809927
1765492354.6891646,47,385000000,base_link,0.5000219941139221,0.0,0.0,0.0,0.0,0.02116985246539116
1765492354.7297497,47,436000000,base_link,0.5000174641609192,0.0,0.0,0.0,0.0,0.018908830359578133
1765492354.7906084,47,487000000,base_link,0.5000098943710327,0.0,0.0,0.0,0.0,0.0193951278924942
1765492354.8308797,47,535000000,base_link,0.5000007152557373,0.0,0.0,0.0,0.0,0.019257472828030586
1765492354.8694236,47,583000000,base_link,0.49989765882492065,0.0,0.0,0.0,0.0,0.02397933043539524
1765492354.9195254,47,631000000,base_link,0.4999818205833435,0.0,0.0,0.0,0.0,0.027348460629582405
1765492354.9794488,47,679000000,base_link,0.49999064207077026,0.0,0.0,0.0,0.0,0.029233139008283615
1765492355.0400333,47,724000000,base_link,0.5000066161155701,0.0,0.0,0.0,0.0,0.03589789941906929
1765492355.0795324,47,772000000,base_link,0.5000022053718567,0.0,0.0,0.0,0.0,0.043448057025671005
1765492355.140586,47,823000000,base_link,0.5000548362731934,0.0,0.0,0.0,0.0,0.04131612554192543
1765492355.1790287,47,871000000,base_link,0.49957603216171265,0.0,0.0,0.0,0.0,0.040107887238264084
1765492355.2189965,47,919000000,base_link,0.4999315142631531,0.0,0.0,0.0,0.0,0.03996577113866806
1765492355.2793598,47,973000000,base_link,0.5000346899032593,0.0,0.0,0.0,0.0,0.04292144998908043
1765492355.3311563,48,27000000,base_link,0.5000402331352234,0.0,0.0,0.0,0.0,0.043416839092969894
1765492355.3691468,48,69000000,base_link,0.500015139579773,0.0,0.0,0.0,0.0,0.03866639360785484
1765492355.450307,48,120000000,base_link,0.500001847743988,0.0,0.0,0.0,0.0,0.04380775988101959
1765492355.489237,48,168000000,base_link,0.4999975562095642,0.0,0.0,0.0,0.0,0.05396044999361038
1765492355.5295868,48,216000000,base_link,0.49977272748947144,0.0,0.0,0.0,0.0,0.05175744742155075
1765492355.5898995,48,264000000,base_link,0.49996131658554077,0.0,0.0,0.0,0.0,0.04914168268442154
1765492355.629694,48,315000000,base_link,0.4999799132347107,0.0,0.0,0.0,0.0,0.0512787327170372
1765492355.6690967,48,363000000,base_link,0.5000149011611938,0.0,0.0,0.0,0.0,-0.020579656586050987
1765492355.7296093,48,411000000,base_link,0.5000048279762268,0.0,0.0,0.0,0.0,-0.04489453136920929
1765492355.7689264,48,459000000,base_link,0.5000035166740417,0.0,0.0,0.0,0.0,-0.06672823429107666
1765492355.819015,48,513000000,base_link,0.4999995231628418,0.0,0.0,0.0,0.0,-0.08327502012252808
1765492355.9011047,48,561000000,base_link,0.4999997019767761,0.0,0.0,0.0,0.0,-0.10476488620042801
1765492355.9397378,48,609000000,base_link,0.4999995827674866,0.0,0.0,0.0,0.0,-0.1233588233590126
1765492355.9793196,48,657000000,base_link,0.4999999403953552,0.0,0.0,0.0,0.0,-0.13751181960105896
1765492356.0392246,48,705000000,base_link,0.5,0.0,0.0,0.0,0.0,-0.14328935742378235
1765492356.0799716,48,753000000,base_link,0.49923640489578247,0.0,0.0,0.0,0.0,-0.14766913652420044
1765492356.1191134,48,804000000,base_link,0.49987107515335083,0.0,0.0,0.0,0.0,-0.1522352397441864
1765492356.1796474,48,852000000,base_link,0.4999319314956665,0.0,0.0,0.0,0.0,-0.15689679980278015
1765492356.2191455,48,903000000,base_link,0.4993981719017029,0.0,0.0,0.0,0.0,-0.15894454717636108
1765492356.3004978,48,951000000,base_link,0.49990594387054443,0.0,0.0,0.0,0.0,-0.15933158993721008
1765492356.3498185,49,2000000,base_link,0.4999538064002991,0.0,0.0,0.0,0.0,-0.16601963341236115
1765492356.3914654,49,50000000,base_link,0.5000411868095398,0.0,0.0,0.0,0.0,-0.16732533276081085
1765492356.4297347,49,98000000,base_link,0.5000126957893372,0.0,0.0,0.0,0.0,-0.16990579664707184
1765492356.490631,49,143000000,base_link,0.5000088214874268,0.0,0.0,0.0,0.0,-0.16164882481098175
1765492356.5302312,49,203000000,base_link,0.4999985098838806,0.0,0.0,0.0,0.0,-0.15519583225250244
1765492356.5688334,49,242000000,base_link,0.49999910593032837,0.0,0.0,0.0,0.0,-0.15931931138038635
1765492356.63006,49,290000000,base_link,0.49999892711639404,0.0,0.0,0.0,0.0,-0.15060308575630188
1765492356.6797454,49,341000000,base_link,0.5001652240753174,0.0,0.0,0.0,0.0,-0.14404284954071045
1765492356.7396188,49,392000000,base_link,0.5000278949737549,0.0,0.0,0.0,0.0,-0.09475012868642807
1765492356.8001316,49,437000000,base_link,0.500004768371582,0.0,0.0,0.0,0.0,-0.08014001697301865
1765492356.8407266,49,491000000,base_link,0.49983447790145874,0.0,0.0,0.0,0.0,-0.06625840067863464
1765492356.8795152,49,536000000,base_link,0.4999697804450989,0.0,0.0,0.0,0.0,-0.06125044450163841
1765492356.9394672,49,584000000,base_link,0.4998193383216858,0.0,0.0,0.0,0.0,-0.034769926220178604
1765492356.9790065,49,632000000,base_link,0.49955350160598755,0.0,0.0,0.0,0.0,-0.024603834375739098
1765492357.0193536,49,683000000,base_link,0.4999163746833801,0.0,0.0,0.0,0.0,-0.005199002102017403
1765492357.0890026,49,731000000,base_link,0.4999752640724182,0.0,0.0,0.0,0.0,-0.019430965185165405
1765492357.11886,49,779000000,base_link,0.5000312924385071,0.0,0.0,0.0,0.0,-0.010270321741700172
1765492357.1890178,49,830000000,base_link,0.5000113248825073,0.0,0.0,0.0,0.0,0.002745233941823244
1765492357.2398021,49,878000000,base_link,0.5000060200691223,0.0,0.0,0.0,0.0,0.011941185221076012
1765492357.289412,49,932000000,base_link,0.49999886751174927,0.0,0.0,0.0,0.0,0.015456194058060646
1765492357.3292527,49,977000000,base_link,0.49999916553497314,0.0,0.0,0.0,0.0,0.028048448264598846
1765492357.3891408,50,28000000,base_link,0.4999992251396179,0.0,0.0,0.0,0.0,0.02693367749452591
1765492357.429178,50,76000000,base_link,0.4999999403953552,0.0,0.0,0.0,0.0,0.03330524265766144
1765492357.4688208,50,124000000,base_link,0.49999773502349854,0.0,0.0,0.0,0.0,0.03518408536911011
1765492357.5294173,50,175000000,base_link,0.4999997019767761,0.0,0.0,0.0,0.0,0.04594653844833374
1765492357.5899196,50,223000000,base_link,0.5001798272132874,0.0,0.0,0.0,0.0,0.04812087118625641
1765492357.6442504,50,271000000,base_link,0.500030517578125,0.0,0.0,0.0,0.0,0.04372943937778473
1765492357.7026885,50,271000000,base_link,0.500030517578125,0.0,0.0,0.0,0.0,0.04372943937778473
1765492357.7595909,50,331000000,base_link,0.5000160336494446,0.0,0.0,0.0,0.0,0.045092590153217316
1765492357.801078,50,382000000,base_link,0.4999961853027344,0.0,0.0,0.0,0.0,0.04587949067354202
1765492357.8393338,50,436000000,base_link,0.5000165104866028,0.0,0.0,0.0,0.0,-0.04866975545883179
1765492357.880471,50,472000000,base_link,0.5000036358833313,0.0,0.0,0.0,0.0,-0.06730933487415314
1765492357.918858,50,523000000,base_link,0.5000019073486328,0.0,0.0,0.0,0.0,-0.07810628414154053
1765492357.9792683,50,571000000,base_link,0.4999989867210388,0.0,0.0,0.0,0.0,-0.09038662910461426
1765492358.0189536,50,619000000,base_link,0.4999995827674866,0.0,0.0,0.0,0.0,-0.10195162892341614
1765492358.0793715,50,670000000,base_link,0.4999997019767761,0.0,0.0,0.0,0.0,-0.11809634417295456
1765492358.150225,50,721000000,base_link,0.5,0.0,0.0,0.0,0.0,-0.12768366932868958
1765492358.189011,50,775000000,base_link,0.49976450204849243,0.0,0.0,0.0,0.0,-0.13046208024024963
1765492358.2502663,50,823000000,base_link,0.4999602437019348,0.0,0.0,0.0,0.0,-0.1333792507648468
1765492358.2892418,50,868000000,base_link,0.49997901916503906,0.0,0.0,0.0,0.0,-0.13593992590904236
1765492358.3191032,50,922000000,base_link,0.5000154376029968,0.0,0.0,0.0,0.0,-0.1369723081588745
1765492358.3890667,50,967000000,base_link,0.5000049471855164,0.0,0.0,0.0,0.0,-0.13606072962284088
1765492358.429321,51,21000000,base_link,0.5000036358833313,0.0,0.0,0.0,0.0,-0.14423415064811707
1765492358.4892695,51,66000000,base_link,0.499999463558197,0.0,0.0,0.0,0.0,-0.13947820663452148
1765492358.5496924,51,117000000,base_link,0.49999964237213135,0.0,0.0,0.0,0.0,-0.13545776903629303
1765492358.5891728,51,165000000,base_link,0.4999995827674866,0.0,0.0,0.0,0.0,-0.13404086232185364
1765492358.6291943,51,216000000,base_link,0.4999999403953552,0.0,0.0,0.0,0.0,-0.1297827661037445
1765492358.6899376,51,267000000,base_link,0.5,0.0,0.0,0.0,0.0,-0.1323678344488144
1765492358.729079,51,315000000,base_link,0.4997859597206116,0.0,0.0,0.0,0.0,-0.12887448072433472
1765492358.7692063,51,363000000,base_link,0.49996381998062134,0.0,0.0,0.0,0.0,-0.11627359688282013
1765492358.8295782,51,408000000,base_link,0.4999809265136719,0.0,0.0,0.0,0.0,-0.1114010140299797
1765492358.8688743,51,465000000,base_link,0.500014066696167,0.0,0.0,0.0,0.0,-0.1061183363199234
1765492358.9306173,51,513000000,base_link,0.49972933530807495,0.0,0.0,0.0,0.0,-0.10535982996225357
1765492358.9891362,51,558000000,base_link,0.4997214078903198,0.0,0.0,0.0,0.0,-0.10727875679731369
1765492359.039328,51,609000000,base_link,0.499885618686676,0.0,0.0,0.0,0.0,-0.11027340590953827
1765492359.080342,51,657000000,base_link,0.4997336268424988,0.0,0.0,0.0,0.0,-0.10347285866737366
1765492359.1393516,51,708000000,base_link,0.4999734163284302,0.0,0.0,0.0,0.0,-0.09897588938474655
1765492359.17906,51,756000000,base_link,0.4998183250427246,0.0,0.0,0.0,0.0,-0.09432685375213623
1765492359.2189064,51,807000000,base_link,0.4999919533729553,0.0,0.0,0.0,0.0,-0.09194158762693405
1765492359.2800126,51,855000000,base_link,0.4999900460243225,0.0,0.0,0.0,0.0,-0.08642542362213135
1765492359.3190498,51,903000000,base_link,0.4996090531349182,0.0,0.0,0.0,0.0,-0.07457693666219711
1765492359.409312,51,954000000,base_link,0.4999340772628784,0.0,0.0,0.0,0.0,-0.06954710930585861
1765492359.4399736,52,5000000,base_link,0.49974745512008667,0.0,0.0,0.0,0.0,-0.060694679617881775
1765492359.479317,52,50000000,base_link,0.499988853931427,0.0,0.0,0.0,0.0,-0.04888787120580673
1765492359.5406785,52,101000000,base_link,0.4999887943267822,0.0,0.0,0.0,0.0,-0.039070967584848404
1765492359.589217,52,149000000,base_link,0.5000203847885132,0.0,0.0,0.0,0.0,-0.021264908835291862
1765492359.6188855,52,200000000,base_link,0.4998018741607666,0.0,0.0,0.0,0.0,-0.013179628178477287
1765492359.679301,52,248000000,base_link,0.4999687671661377,0.0,0.0,0.0,0.0,0.0027625910006463528
1765492359.7294302,52,299000000,base_link,0.4994280934333801,0.0,0.0,0.0,0.0,0.01158328726887703
1765492359.7893512,52,350000000,base_link,0.499919593334198,0.0,0.0,0.0,0.0,0.01771007664501667
1765492359.8499477,52,398000000,base_link,0.49995458126068115,0.0,0.0,0.0,0.0,0.022594615817070007
1765492359.890467,52,446000000,base_link,0.5000394582748413,0.0,0.0,0.0,0.0,0.026104234158992767
1765492359.9290357,52,497000000,base_link,0.4993695616722107,0.0,0.0,0.0,0.0,0.032396163791418076
1765492359.968941,52,542000000,base_link,0.49990010261535645,0.0,0.0,0.0,0.0,0.02445736899971962
1765492360.0290341,52,593000000,base_link,0.499935507774353,0.0,0.0,0.0,0.0,0.014221858233213425
1765492360.079339,52,641000000,base_link,0.5000403523445129,0.0,0.0,0.0,0.0,0.0062605030834674835
1765492360.1391628,52,689000000,base_link,0.5000119805335999,0.0,0.0,0.0,0.0,0.00955779105424881
1765492360.1994412,52,740000000,base_link,0.5000103116035461,0.0,0.0,0.0,0.0,0.00885448232293129
1765492360.239244,52,788000000,base_link,0.4999988079071045,0.0,0.0,0.0,0.0,0.012860359624028206
1765492360.2996948,52,839000000,base_link,0.49999934434890747,0.0,0.0,0.0,0.0,0.011445690877735615
1765492360.3393874,52,887000000,base_link,0.49999886751174927,0.0,0.0,0.0,0.0,0.01939047873020172
1765492360.3791509,52,938000000,base_link,0.49999988079071045,0.0,0.0,0.0,0.0,0.02720315009355545
1765492360.4191363,52,986000000,base_link,0.4999999403953552,0.0,0.0,0.0,0.0,0.029328173026442528
1765492360.4891562,53,28000000,base_link,0.4995330274105072,0.0,0.0,0.0,0.0,0.039430197328329086
1765492360.519328,53,79000000,base_link,0.49992114305496216,0.0,0.0,0.0,0.0,0.04580540582537651
1765492360.5687933,53,127000000,base_link,0.4999583959579468,0.0,0.0,0.0,0.0,0.051217176020145416
1765492360.6491241,53,178000000,base_link,0.49961885809898376,0.0,0.0,0.0,0.0,0.05958252400159836
1765492360.6890752,53,226000000,base_link,0.49994027614593506,0.0,0.0,0.0,0.0,0.06473588198423386
1765492360.728944,53,274000000,base_link,0.49997061491012573,0.0,0.0,0.0,0.0,0.06726773083209991
1765492360.7903316,53,325000000,base_link,0.4995808005332947,0.0,0.0,0.0,0.0,0.07403434067964554
1765492360.829282,53,376000000,base_link,0.4999328851699829,0.0,0.0,0.0,0.0,0.07925465703010559
1765492360.8891256,53,424000000,base_link,0.49987369775772095,0.0,0.0,0.0,0.0,0.084086112678051
1765492360.929418,53,475000000,base_link,0.4999631643295288,0.0,0.0,0.0,0.0,0.08589116483926773
1765492360.9688923,53,523000000,base_link,0.4999921917915344,0.0,0.0,0.0,0.0,0.08747042715549469
1765492361.0087082,53,571000000,base_link,0.5000079274177551,0.0,0.0,0.0,0.0,0.0351279154419899
1765492361.0891209,53,619000000,base_link,0.500004231929779,0.0,0.0,0.0,0.0,0.01628158986568451
1765492361.139027,53,670000000,base_link,0.49973350763320923,0.0,0.0,0.0,0.0,0.010874480940401554
1765492361.1900935,53,718000000,base_link,0.4999545216560364,0.0,0.0,0.0,0.0,0.0010738878045231104
1765492361.2394989,53,769000000,base_link,0.4999757409095764,0.0,0.0,0.0,0.0,-0.0025446098297834396
1765492361.2810583,53,820000000,base_link,0.5000173449516296,0.0,0.0,0.0,0.0,-0.010583853349089622
1765492361.339028,53,865000000,base_link,0.49984508752822876,0.0,0.0,0.0,0.0,-0.017287518829107285
1765492361.3790474,53,916000000,base_link,0.4999770522117615,0.0,0.0,0.0,0.0,-0.016210265457630157
1765492361.419064,53,967000000,base_link,0.4999851584434509,0.0,0.0,0.0,0.0,-0.023394837975502014
1765492361.489769,54,12000000,base_link,0.5000101923942566,0.0,0.0,0.0,0.0,-0.019020501524209976
1765492361.5394766,54,63000000,base_link,0.500002920627594,0.0,0.0,0.0,0.0,-0.021087121218442917
1765492361.5894108,54,108000000,base_link,0.4997028112411499,0.0,0.0,0.0,0.0,-0.02003195881843567
1765492361.649257,54,159000000,base_link,0.49994903802871704,0.0,0.0,0.0,0.0,-0.013582861050963402
1765492361.6890578,54,207000000,base_link,0.4999730587005615,0.0,0.0,0.0,0.0,-0.009840419515967369
1765492361.729765,54,258000000,base_link,0.500019371509552,0.0,0.0,0.0,0.0,-0.004740623757243156
1765492361.7894344,54,309000000,base_link,0.49968212842941284,0.0,0.0,0.0,0.0,-0.004927278030663729
1765492361.8289804,54,357000000,base_link,0.49994993209838867,0.0,0.0,0.0,0.0,-0.007237328216433525
1765492361.8689373,54,405000000,base_link,0.4997867941856384,0.0,0.0,0.0,0.0,-0.0045237066224217415
1765492361.929082,54,453000000,base_link,0.4999898076057434,0.0,0.0,0.0,0.0,0.0034302815329283476
1765492361.9895017,54,501000000,base_link,0.49869221448898315,0.0,0.0,0.0,0.0,0.0032519400119781494
1765492362.0391557,54,552000000,base_link,0.4997979402542114,0.0,0.0,0.0,0.0,0.011608105152845383
1765492362.0905032,54,600000000,base_link,0.49988752603530884,0.0,0.0,0.0,0.0,-0.020143987610936165
1765492362.128934,54,651000000,base_link,0.4999600052833557,0.0,0.0,0.0,0.0,-0.029648365452885628
1765492362.1692476,54,699000000,base_link,0.49989354610443115,0.0,0.0,0.0,0.0,-0.0362880639731884
1765492362.2392304,54,747000000,base_link,0.4999898076057434,0.0,0.0,0.0,0.0,-0.03913294896483421
1765492362.2794614,54,798000000,base_link,0.4999755024909973,0.0,0.0,0.0,0.0,-0.04714714735746384
1765492362.3392527,54,849000000,base_link,0.49916529655456543,0.0,0.0,0.0,0.0,-0.047990426421165466
1765492362.3993652,54,900000000,base_link,0.49985557794570923,0.0,0.0,0.0,0.0,-0.05039796233177185
1765492362.4407198,54,948000000,base_link,0.4992273449897766,0.0,0.0,0.0,0.0,-0.044170625507831573
1765492362.4900432,54,990000000,base_link,0.49993669986724854,0.0,0.0,0.0,0.0,-0.04784542694687843
1765492362.5301957,55,38000000,base_link,0.4983859658241272,0.0,0.0,0.0,0.0,-0.04111739248037338
1765492362.5891423,55,86000000,base_link,0.4997938871383667,0.0,0.0,0.0,0.0,-0.0422825887799263
1765492362.6292963,55,137000000,base_link,0.4998731017112732,0.0,0.0,0.0,0.0,-0.0378415621817112
1765492362.6689124,55,188000000,base_link,0.4996423125267029,0.0,0.0,0.0,0.0,-0.035177793353796005
1765492362.7303731,55,236000000,base_link,0.499950647354126,0.0,0.0,0.0,0.0,-0.026838121935725212
1765492362.7916093,55,284000000,base_link,0.4996105432510376,0.0,0.0,0.0,0.0,-0.017191896215081215
1765492362.8304389,55,332000000,base_link,0.49996376037597656,0.0,0.0,0.0,0.0,-0.00927246455103159
