Timestamp,header_stamp_sec,header_stamp_nanosec,header_frame_id,name,position,velocity,effort
1765492308.4301379,3,273000000,base_link,"['front_left_wheel_joint', 'front_right_wheel_joint', 'rear_left_wheel_joint', 'rear_right_wheel_joint']","[-4.194284240857376e-18, -4.031538505448972e-18, 1.7678542816538528e-18, -2.7923788039082134e-18]","[4.2357828594645415e-18, 4.3212709228072755e-18, 2.089161716851478e-17, -2.5501703300763907e-18]","[nan, nan, nan, nan]"
1765492308.4519837,3,294000000,base_link,"['front_left_wheel_joint', 'front_right_wheel_joint', 'rear_left_wheel_joint', 'rear_right_wheel_joint']","[-4.089043001669537e-18, -3.985283079367103e-18, 1.7492843251476768e-18, -2.8778997676141636e-18]","[3.7884414253424855e-18, -8.467075291934507e-18, -8.314293625823191e-18, -1.267821251679722e-17]","[nan, nan, nan, nan]"
1765492308.4720883,3,315000000,base_link,"['front_left_wheel_joint', 'front_right_wheel_joint', 'rear_left_wheel_joint', 'rear_right_wheel_joint']","[-4.270185262449426e-18, -4.103783583141119e-18, 1.400130582790718e-18, -3.000482018850373e-18]","[-1.2973148266750183e-17, -1.6990658349961996e-17, -1.966150795089362e-17, -1.110833394737557e-17]","[nan, nan, nan, nan]"
1765492308.4936135,3,336000000,base_link,"['front_left_wheel_joint', 'front_right_wheel_joint', 'rear_left_wheel_joint', 'rear_right_wheel_joint']","[-4.299569318074153e-18, -4.170145630307095e-18, 1.3954957479084268e-18, -3.0583198284750098e-18]","[2.7143149587756022e-17, 1.7254254528200924e-17, 3.0042762142484915e-17, 1.3707785157432086e-17]","[nan, nan, nan, nan]"
1765492308.5152025,3,357000000,base_link,"['front_left_wheel_joint', 'front_right_wheel_joint', 'rear_left_wheel_joint', 'rear_right_wheel_joint']","[-4.334848976604317e-18, -4.27354400109713e-18, 1.2239600650837813e-18, -3.073978586415949e-18]","[-1.0001890340928773e-17, -1.359218002611855e-18, -1.0353802415608226e-17, -2.7274584587503305e-18]","[nan, nan, nan, nan]"
1765492308.5358841,3,378000000,base_link,"['front_left_wheel_joint', 'front_right_wheel_joint', 'rear_left_wheel_joint', 'rear_right_wheel_joint']","[-4.278825750506942e-18, -4.2510598521771275e-18, 1.1853239684386185e-18, -3.033629186393418e-18]","[3.9637760639410535e-18, 4.845658465471952e-18, -6.93089169860451e-18, -2.52488965426425e-18]","[nan, nan, nan, nan]"
1765492308.5568287,3,399000000,base_link,"['front_left_wheel_joint', 'front_right_wheel_joint', 'rear_left_wheel_joint', 'rear_right_wheel_joint']","[-4.282396357556596e-18, -4.4082292291495744e-18, 9.826479012357794e-19, -3.1009471115105287e-18]","[7.252890527407749e-18, 7.254560432975626e-19, -9.447840379442621e-18, -2.309699155123445e-18]","[nan, nan, nan, nan]"
1765492308.5779665,3,420000000,base_link,"['front_left_wheel_joint', 'front_right_wheel_joint', 'rear_left_wheel_joint', 'rear_right_wheel_joint']","[-4.0558537954307206e-18, -4.393215418050645e-18, 8.927583003229969e-19, -3.1051625384645785e-18]","[2.2796318663741e-17, -6.985445662579516e-19, 1.2577352045643929e-17, 1.0504703120979842e-17]","[nan, nan, nan, nan]"
1765492308.5992787,3,441000000,base_link,"['front_left_wheel_joint', 'front_right_wheel_joint', 'rear_left_wheel_joint', 'rear_right_wheel_joint']","[-3.96793892720276e-18, -4.455860786559669e-18, 7.5640981365682735e-19, -3.1316662682125873e-18]","[7.66830508461772e-18, -6.152023672803386e-18, -1.5306825283739562e-18, -9.466368911171433e-19]","[nan, nan, nan, nan]"
1765492308.6205513,3,462000000,base_link,"['front_left_wheel_joint', 'front_right_wheel_joint', 'rear_left_wheel_joint', 'rear_right_wheel_joint']","[-3.719943107762272e-18, -4.509030143709202e-18, 6.683749916372139e-19, -3.223197375111493e-18]","[2.9404976354570297e-18, -1.9480102426614974e-17, -1.4555257534774628e-17, -1.0669658707320173e-17]","[nan, nan, nan, nan]"
1765492308.64196,3,483000000,base_link,"['front_left_wheel_joint', 'front_right_wheel_joint', 'rear_left_wheel_joint', 'rear_right_wheel_joint']","[-3.530309806899315e-18, -4.6075273868960285e-18, 5.658044905873972e-19, -3.3946342242121696e-18]","[-9.173795700045272e-18, -2.5037155309135148e-17, -2.7745409327397303e-17, -2.858601413507437e-17]","[nan, nan, nan, nan]"
1765492308.666601,3,501000000,base_link,"['front_left_wheel_joint', 'front_right_wheel_joint', 'rear_left_wheel_joint', 'rear_right_wheel_joint']","[-3.75942152761543e-18, -4.860669795794184e-18, 2.4331057037403808e-19, -3.7023176723001684e-18]","[-4.0691616907131984e-18, -9.655650117215196e-19, -2.7189513350895666e-18, 6.132852874039056e-18]","[nan, nan, nan, nan]"
1765492308.68756,3,525000000,base_link,"['front_left_wheel_joint', 'front_right_wheel_joint', 'rear_left_wheel_joint', 'rear_right_wheel_joint']","[-3.93241581773312e-18, -4.8741199645834275e-18, 2.5644722507458595e-19, -3.727998280684449e-18]","[-2.0721499926198317e-17, -4.48751802935211e-18, 1.0781903597923588e-17, -1.1167289559552557e-17]","[nan, nan, nan, nan]"
1765492308.709154,3,546000000,base_link,"['front_left_wheel_joint', 'front_right_wheel_joint', 'rear_left_wheel_joint', 'rear_right_wheel_joint']","[-4.227119057175882e-18, -4.966516347110613e-18, 3.009354640206034e-19, -3.824072710956799e-18]","[-2.132786280571803e-17, -1.5428776711898672e-17, 2.254968826500774e-18, -8.067519685738937e-18]","[nan, nan, nan, nan]"
1765492308.7302752,3,567000000,base_link,"['front_left_wheel_joint', 'front_right_wheel_joint', 'rear_left_wheel_joint', 'rear_right_wheel_joint']","[-4.3620226725744335e-18, -4.920763955458118e-18, 3.9394366019689225e-19, -3.733222860396847e-18]","[-1.6295733640230897e-17, -2.3037637434981734e-18, 1.764807412407438e-17, 1.084909672498524e-17]","[nan, nan, nan, nan]"
1765492308.7510045,3,588000000,base_link,"['front_left_wheel_joint', 'front_right_wheel_joint', 'rear_left_wheel_joint', 'rear_right_wheel_joint']","[-4.664949230192986e-18, -4.922733210605172e-18, 5.115953059057159e-19, -3.725135405283009e-18]","[-1.8460798799609398e-17, 1.819200947357526e-18, 1.4607159240706312e-17, 8.874211753071393e-19]","[nan, nan, nan, nan]"
1765492308.7726858,3,609000000,base_link,"['front_left_wheel_joint', 'front_right_wheel_joint', 'rear_left_wheel_joint', 'rear_right_wheel_joint']","[-4.902102090200509e-18, -4.956496117194652e-18, 5.550068019870731e-19, -3.738183005090831e-18]","[-6.752185935491069e-18, -4.2112917610824656e-18, 4.311197173684831e-18, -3.0932139415437925e-18]","[nan, nan, nan, nan]"
1765492308.7939234,3,630000000,base_link,"['front_left_wheel_joint', 'front_right_wheel_joint', 'rear_left_wheel_joint', 'rear_right_wheel_joint']","[-5.107564885986558e-18, -5.1461725680977166e-18, 5.817699548987186e-19, -3.768874620109049e-18]","[-1.65281690561611e-17, -1.3619530626121755e-17, 6.669743152521797e-18, -7.565661637940656e-18]","[nan, nan, nan, nan]"
1765492308.815108,3,651000000,base_link,"['front_left_wheel_joint', 'front_right_wheel_joint', 'rear_left_wheel_joint', 'rear_right_wheel_joint']","[-5.37592318193391e-18, -5.26090907666515e-18, 4.873611601819712e-19, -4.030498955338629e-18]","[-2.4386504626429465e-17, -2.1024399167756013e-17, -1.2643980309848357e-17, -2.3467974963929418e-17]","[nan, nan, nan, nan]"
1765492308.836285,3,672000000,base_link,"['front_left_wheel_joint', 'front_right_wheel_joint', 'rear_left_wheel_joint', 'rear_right_wheel_joint']","[-5.409299549570403e-18, -5.363451696550257e-18, 5.948291498977189e-19, -3.99707038196913e-18]","[-1.1343923855066949e-17, -1.1073114672700583e-17, 1.7217388042804855e-17, 3.3971755238171963e-18]","[nan, nan, nan, nan]"
1765492308.8575027,3,693000000,base_link,"['front_left_wheel_joint', 'front_right_wheel_joint', 'rear_left_wheel_joint', 'rear_right_wheel_joint']","[-5.533178030256954e-18, -5.4508637009791476e-18, 6.661331412798505e-19, -4.153731510125838e-18]","[-3.9498780632968455e-18, -6.666121325182003e-18, 4.0498834934444024e-18, -1.4172174086204895e-17]","[nan, nan, nan, nan]"
1765492308.8794527,3,714000000,base_link,"['front_left_wheel_joint', 'front_right_wheel_joint', 'rear_left_wheel_joint', 'rear_right_wheel_joint']","[-5.5578494307616486e-18, -5.413192676907677e-18, 7.135710926794344e-19, -4.143779458913067e-18]","[-1.7854413429628845e-17, -1.0789360254889658e-17, -2.883639971033403e-18, -9.35848123739587e-18]","[nan, nan, nan, nan]"
1765492308.8995512,3,735000000,base_link,"['front_left_wheel_joint', 'front_right_wheel_joint', 'rear_left_wheel_joint', 'rear_right_wheel_joint']","[-5.665398313559692e-18, -5.444298487278041e-18, 6.086365146140627e-19, -4.192691042279334e-18]","[-2.3590779847087578e-17, -1.3863133294232153e-17, -1.7134755071540626e-17, -2.1126430439748074e-17]","[nan, nan, nan, nan]"
1765492308.9210284,3,756000000,base_link,"['front_left_wheel_joint', 'front_right_wheel_joint', 'rear_left_wheel_joint', 'rear_right_wheel_joint']","[-5.785820812965201e-18, -5.512198582822529e-18, 4.437609575721773e-19, -4.230628514483413e-18]","[5.647393722684769e-18, 7.40953364443342e-18, 1.9078907810782138e-18, 1.250627655625606e-17]","[nan, nan, nan, nan]"
1765492308.9419875,3,777000000,base_link,"['front_left_wheel_joint', 'front_right_wheel_joint', 'rear_left_wheel_joint', 'rear_right_wheel_joint']","[-6.000932418686947e-18, -5.729180497407679e-18, 2.197804070821941e-19, -4.515879904436616e-18]","[-1.8356491551039556e-17, -1.6525867689475514e-17, -1.6774566498480326e-17, -2.1290625996224508e-17]","[nan, nan, nan, nan]"
1765492308.9631562,3,798000000,base_link,"['front_left_wheel_joint', 'front_right_wheel_joint', 'rear_left_wheel_joint', 'rear_right_wheel_joint']","[-6.022918748524444e-18, -5.792411754357377e-18, 1.1424448312997087e-19, -4.5615664971851284e-18]","[-2.3676507227960495e-17, -1.5755722442550837e-17, -2.0864285401278564e-17, -1.1907015975427824e-17]","[nan, nan, nan, nan]"
1765492308.9847572,3,819000000,base_link,"['front_left_wheel_joint', 'front_right_wheel_joint', 'rear_left_wheel_joint', 'rear_right_wheel_joint']","[-6.062186800997352e-18, -5.878273615442254e-18, -5.282352061872028e-20, -4.716527724769119e-18]","[6.939544377758069e-18, -8.423004317461655e-19, -1.0872618361264585e-17, -5.910254063188815e-18]","[nan, nan, nan, nan]"
1765492309.005493,3,840000000,base_link,"['front_left_wheel_joint', 'front_right_wheel_joint', 'rear_left_wheel_joint', 'rear_right_wheel_joint']","[-5.897905445416937e-18, -5.865862266977288e-18, -2.6184471735354674e-20, -4.663548568535584e-18]","[2.6276845097324284e-17, 2.5943208368045735e-17, 1.8266402895435483e-17, 1.7151857007214983e-17]","[nan, nan, nan, nan]"
1765492309.0270014,3,861000000,base_link,"['front_left_wheel_joint', 'front_right_wheel_joint', 'rear_left_wheel_joint', 'rear_right_wheel_joint']","[-5.841545693814748e-18, -5.8911706297342815e-18, -1.7798497244448267e-19, -4.720316363808344e-18]","[8.731252929796568e-18, -5.0478433317624e-18, -1.249814684232858e-17, -5.677718157283903e-19]","[nan, nan, nan, nan]"
1765492309.0484564,3,882000000,base_link,"['front_left_wheel_joint', 'front_right_wheel_joint', 'rear_left_wheel_joint', 'rear_right_wheel_joint']","[-5.752204049144644e-18, -5.9031229756910564e-18, -2.506434248106769e-19, -4.730256298995849e-18]","[-5.473048955266152e-19, -5.654341315430701e-18, -9.109731339691213e-18, -2.753718935114563e-18]","[nan, nan, nan, nan]"
1765492309.0696673,3,903000000,base_link,"['front_left_wheel_joint', 'front_right_wheel_joint', 'rear_left_wheel_joint', 'rear_right_wheel_joint']","[-5.531596407245753e-18, -5.916040229006086e-18, -2.914581102514867e-19, -4.710190036537042e-18]","[9.864990455470015e-18, -9.464183644322205e-18, -9.824581708410209e-18, -5.29392443031264e-19]","[nan, nan, nan, nan]"
1765492309.0904524,3,924000000,base_link,"['front_left_wheel_joint', 'front_right_wheel_joint', 'rear_left_wheel_joint', 'rear_right_wheel_joint']","[-5.492261204563428e-18, -6.130511760120595e-18, -5.71214442405469e-19, -4.954777972998582e-18]","[-3.773203169948295e-18, -5.260675003279455e-18, -1.228326237845507e-17, -3.395997211774197e-18]","[nan, nan, nan, nan]"
1765492309.1122375,3,945000000,base_link,"['front_left_wheel_joint', 'front_right_wheel_joint', 'rear_left_wheel_joint', 'rear_right_wheel_joint']","[-5.694757605790728e-18, -6.25992226662358e-18, -7.637136865010857e-19, -5.149007007758762e-18]","[-7.723401522156437e-18, -3.643883455572179e-18, -2.3436536917905596e-17, -1.2893460021227886e-17]","[nan, nan, nan, nan]"
1765492309.1331744,3,966000000,base_link,"['front_left_wheel_joint', 'front_right_wheel_joint', 'rear_left_wheel_joint', 'rear_right_wheel_joint']","[-5.912227937555105e-18, -6.306900348314314e-18, -7.161564181402496e-19, -5.280075509919309e-18]","[3.8331220970642716e-18, 1.342221929430942e-17, 1.300184936839893e-17, 1.15447022178011e-17]","[nan, nan, nan, nan]"
1765492309.1548471,3,987000000,base_link,"['front_left_wheel_joint', 'front_right_wheel_joint', 'rear_left_wheel_joint', 'rear_right_wheel_joint']","[-6.257107313943217e-18, -6.488842655349347e-18, -7.914826037082242e-19, -5.459866812021067e-18]","[2.7032522940639466e-18, -6.633284985825818e-18, 2.8666163464032523e-18, -2.0726874156389333e-18]","[nan, nan, nan, nan]"
1765492309.1759706,4,8000000,base_link,"['front_left_wheel_joint', 'front_right_wheel_joint', 'rear_left_wheel_joint', 'rear_right_wheel_joint']","[-6.444985927296189e-18, -6.578042781634518e-18, -7.4017487143218835e-19, -5.4829852860746e-18]","[-1.5108779733857822e-17, -4.617044553610486e-18, -4.137449453620039e-18, 7.411206728753553e-18]","[nan, nan, nan, nan]"
1765492309.2024662,4,29000000,base_link,"['front_left_wheel_joint', 'front_right_wheel_joint', 'rear_left_wheel_joint', 'rear_right_wheel_joint']","[-6.680070621233447e-18, -6.78349875935741e-18, -7.489781489506539e-19, -5.654582260147202e-18]","[-2.386862899675566e-17, -1.9560079072904353e-17, -8.300825998709908e-18, -1.8636895809002497e-17]","[nan, nan, nan, nan]"
1765492309.2226968,4,50000000,base_link,"['front_left_wheel_joint', 'front_right_wheel_joint', 'rear_left_wheel_joint', 'rear_right_wheel_joint']","[-6.717761191685389e-18, -6.79348560449915e-18, -7.084432305938662e-19, -5.688308127096474e-18]","[-1.3402742701294755e-17, 6.545421998316176e-18, -6.44980665543227e-18, 1.4133207682967076e-18]","[nan, nan, nan, nan]"
1765492309.243745,4,71000000,base_link,"['front_left_wheel_joint', 'front_right_wheel_joint', 'rear_left_wheel_joint', 'rear_right_wheel_joint']","[-6.743164351262334e-18, -6.99646643160369e-18, -7.448886732377739e-19, -5.846779233857055e-18]","[2.109664654636743e-17, 6.110151859945002e-18, 1.2846278536808146e-17, 1.7384821424666185e-19]","[nan, nan, nan, nan]"
1765492309.2650044,4,92000000,base_link,"['front_left_wheel_joint', 'front_right_wheel_joint', 'rear_left_wheel_joint', 'rear_right_wheel_joint']","[-6.743557216629143e-18, -7.001527465158013e-18, -6.651957290432224e-19, -5.9156157676600164e-18]","[-6.036868642848959e-18, -7.612591111149935e-18, -9.872648717590799e-18, -8.105048554752475e-18]","[nan, nan, nan, nan]"
1765492309.2870495,4,113000000,base_link,"['front_left_wheel_joint', 'front_right_wheel_joint', 'rear_left_wheel_joint', 'rear_right_wheel_joint']","[-6.725071923720927e-18, -7.102128089744099e-18, -6.351983174241209e-19, -5.909645566080633e-18]","[1.1622497631472133e-17, -6.4075494758700535e-19, 7.564633547240148e-18, 2.508484979448452e-19]","[nan, nan, nan, nan]"
1765492309.3075013,4,134000000,base_link,"['front_left_wheel_joint', 'front_right_wheel_joint', 'rear_left_wheel_joint', 'rear_right_wheel_joint']","[-6.786176210573763e-18, -7.117504351611404e-18, -6.101601527295644e-19, -5.924368083772731e-18]","[-1.471098592295595e-17, -1.7713719547240997e-18, -1.3151751508262045e-17, -1.0051269272080793e-17]","[nan, nan, nan, nan]"
1765492309.3281472,4,155000000,base_link,"['front_left_wheel_joint', 'front_right_wheel_joint', 'rear_left_wheel_joint', 'rear_right_wheel_joint']","[-6.911462199226056e-18, -7.312212468294373e-18, -9.87154677032621e-19, -6.135145422661681e-18]","[7.24230663023361e-18, 4.426750121609802e-18, -6.633106953654195e-18, -3.2951910405012626e-18]","[nan, nan, nan, nan]"
1765492309.3495307,4,176000000,base_link,"['front_left_wheel_joint', 'front_right_wheel_joint', 'rear_left_wheel_joint', 'rear_right_wheel_joint']","[-7.035518425813015e-18, -7.545987144776996e-18, -1.268561160252745e-18, -6.3802847528151426e-18]","[-4.896895403176455e-18, -4.6946030083491156e-18, -3.11321947469702e-18, -9.401294538422315e-18]","[nan, nan, nan, nan]"
1765492309.3702886,4,197000000,base_link,"['front_left_wheel_joint', 'front_right_wheel_joint', 'rear_left_wheel_joint', 'rear_right_wheel_joint']","[-6.99702930824228e-18, -7.665250410475996e-18, -1.4323442684854843e-18, -6.491031000012218e-18]","[3.830294211130919e-18, -3.996537569905613e-18, -1.8867473033957413e-17, -8.425654336015325e-18]","[nan, nan, nan, nan]"
1765492309.3916442,4,218000000,base_link,"['front_left_wheel_joint', 'front_right_wheel_joint', 'rear_left_wheel_joint', 'rear_right_wheel_joint']","[-7.182780763988787e-18, -7.940018073884657e-18, -1.7360979335634286e-18, -6.784149741797593e-18]","[1.8761322131065135e-17, 1.1720207233709964e-17, 9.538417419021313e-19, 7.310237467518485e-18]","[nan, nan, nan, nan]"
1765492309.4135406,4,239000000,base_link,"['front_left_wheel_joint', 'front_right_wheel_joint', 'rear_left_wheel_joint', 'rear_right_wheel_joint']","[-7.09683917396344e-18, -8.058249459310389e-18, -1.8470265398998374e-18, -6.9041556854742504e-18]","[1.0626595211803495e-17, 5.114786670946405e-18, -3.3740544895649644e-18, 2.8389650170577822e-18]","[nan, nan, nan, nan]"
1765492309.4346373,4,260000000,base_link,"['front_left_wheel_joint', 'front_right_wheel_joint', 'rear_left_wheel_joint', 'rear_right_wheel_joint']","[-6.84470827914407e-18, -8.062547556675266e-18, -1.9088296524236633e-18, -6.935042791709735e-18]","[2.8642280815832396e-17, 2.0835530825688057e-17, 1.8933221496130213e-17, 1.3187031679768934e-17]","[nan, nan, nan, nan]"
1765492309.4557602,4,281000000,base_link,"['front_left_wheel_joint', 'front_right_wheel_joint', 'rear_left_wheel_joint', 'rear_right_wheel_joint']","[-6.692823010255082e-18, -8.211676189977046e-18, -2.0741298433431173e-18, -7.146562599115263e-18]","[2.8017978821636925e-17, 1.2950229227097423e-17, 5.707560026503745e-18, 8.82640513296031e-18]","[nan, nan, nan, nan]"
1765492309.4766319,4,302000000,base_link,"['front_left_wheel_joint', 'front_right_wheel_joint', 'rear_left_wheel_joint', 'rear_right_wheel_joint']","[-6.465224576197122e-18, -8.221383814541963e-18, -2.1609361937570673e-18, -7.167514105556335e-18]","[1.1710618658263883e-17, 2.0414889905723498e-18, -5.616924487855196e-18, 2.0713084541016362e-18]","[nan, nan, nan, nan]"
1765492309.4982412,4,323000000,base_link,"['front_left_wheel_joint', 'front_right_wheel_joint', 'rear_left_wheel_joint', 'rear_right_wheel_joint']","[-6.273410618848136e-18, -8.17142765108408e-18, -2.219879002136057e-18, -7.25660936361982e-18]","[-4.587394148568486e-18, -1.42039490957292e-17, -2.4607563168645343e-17, -1.7393047132564596e-17]","[nan, nan, nan, nan]"
1765492309.5193124,4,344000000,base_link,"['front_left_wheel_joint', 'front_right_wheel_joint', 'rear_left_wheel_joint', 'rear_right_wheel_joint']","[-6.0230459812712674e-18, -8.187968565769479e-18, -2.3631808371165368e-18, -7.328732639295939e-18]","[8.792889866925287e-18, 4.298298473651275e-18, -1.1353236608272437e-17, -4.9499771350466926e-18]","[nan, nan, nan, nan]"
1765492309.540284,4,365000000,base_link,"['front_left_wheel_joint', 'front_right_wheel_joint', 'rear_left_wheel_joint', 'rear_right_wheel_joint']","[-6.243781078911342e-18, -8.3346771894773e-18, -2.63419689596194e-18, -7.580132308925275e-18]","[-2.1967152531525113e-17, -2.0874210505636625e-17, -2.5753267179576903e-17, -1.853890029322057e-17]","[nan, nan, nan, nan]"
1765492309.5619674,4,386000000,base_link,"['front_left_wheel_joint', 'front_right_wheel_joint', 'rear_left_wheel_joint', 'rear_right_wheel_joint']","[-6.547547046094886e-18, -8.533794109100334e-18, -2.672502473072147e-18, -7.807612079921557e-18]","[-3.084262122307523e-17, -9.78615451535995e-18, -3.9759103369853383e-19, -1.8471081199472658e-17]","[nan, nan, nan, nan]"
1765492309.5829685,4,407000000,base_link,"['front_left_wheel_joint', 'front_right_wheel_joint', 'rear_left_wheel_joint', 'rear_right_wheel_joint']","[-6.843702452595534e-18, -8.792754032853822e-18, -2.8141238249751152e-18, -8.011196626195022e-18]","[9.540960907153362e-20, 6.064039393909597e-18, -6.343799506689138e-19, -5.862080995475624e-19]","[nan, nan, nan, nan]"
1765492309.6042898,4,428000000,base_link,"['front_left_wheel_joint', 'front_right_wheel_joint', 'rear_left_wheel_joint', 'rear_right_wheel_joint']","[-7.283582091418355e-18, -9.115637773977845e-18, -3.0105667345747048e-18, -8.37661582444002e-18]","[-3.8046809994003866e-17, -2.7224247874582464e-17, -1.7177845842645746e-17, -2.931654409964655e-17]","[nan, nan, nan, nan]"
1765492309.6251383,4,449000000,base_link,"['front_left_wheel_joint', 'front_right_wheel_joint', 'rear_left_wheel_joint', 'rear_right_wheel_joint']","[-7.669054048211895e-18, -9.487577130176387e-18, -3.290849661659005e-18, -8.63448697622653e-18]","[-3.147017486555929e-17, -3.066548306686565e-17, -3.473388695093071e-17, -2.5882844136448854e-17]","[nan, nan, nan, nan]"
1765492309.6468718,4,470000000,base_link,"['front_left_wheel_joint', 'front_right_wheel_joint', 'rear_left_wheel_joint', 'rear_right_wheel_joint']","[-7.626987025412827e-18, -9.484507630491836e-18, -3.2856810261037346e-18, -8.597091457076345e-18]","[1.2164049547069047e-17, 1.3293042477059657e-17, 1.0540668673369131e-17, 1.8912654201668094e-17]","[nan, nan, nan, nan]"
1765492309.6680424,4,491000000,base_link,"['front_left_wheel_joint', 'front_right_wheel_joint', 'rear_left_wheel_joint', 'rear_right_wheel_joint']","[-7.647060401290342e-18, -9.614779140209954e-18, -3.309506991435232e-18, -8.690885612900917e-18]","[2.9005141101952613e-18, -8.009588899275443e-18, -4.9628301226419095e-19, 3.94461083965431e-18]","[nan, nan, nan, nan]"
1765492309.6888988,4,512000000,base_link,"['front_left_wheel_joint', 'front_right_wheel_joint', 'rear_left_wheel_joint', 'rear_right_wheel_joint']","[-7.670668249811401e-18, -9.732666327666078e-18, -3.3680623036956203e-18, -8.752418466449437e-18]","[-1.484432715159647e-18, -2.1754510130160013e-18, 1.9390639688741986e-18, -3.708198145946535e-18]","[nan, nan, nan, nan]"
1765492309.7099977,4,533000000,base_link,"['front_left_wheel_joint', 'front_right_wheel_joint', 'rear_left_wheel_joint', 'rear_right_wheel_joint']","[-7.702068020129174e-18, -9.790280695327305e-18, -3.4381171895990766e-18, -8.789104708610979e-18]","[1.145071278838679e-17, 2.033349370944507e-17, 1.972947402465746e-17, 1.794406051737693e-17]","[nan, nan, nan, nan]"
1765492309.7327313,4,554000000,base_link,"['front_left_wheel_joint', 'front_right_wheel_joint', 'rear_left_wheel_joint', 'rear_right_wheel_joint']","[-7.229382741693402e-18, -9.423895517844586e-18, -3.0627544683611917e-18, -8.434562420736747e-18]","[4.254753945978286e-17, 3.301784290908073e-17, 2.7371304767923443e-17, 2.3889117860666208e-17]","[nan, nan, nan, nan]"
1765492309.759594,4,575000000,base_link,"['front_left_wheel_joint', 'front_right_wheel_joint', 'rear_left_wheel_joint', 'rear_right_wheel_joint']","[-6.8869356240039565e-18, -9.186790606528832e-18, -2.8571930878444462e-18, -8.198634260294885e-18]","[-6.522718469131941e-18, -1.529156632808284e-17, -1.1425759485234167e-17, -2.106583231902416e-17]","[nan, nan, nan, nan]"
1765492309.7805338,4,596000000,base_link,"['front_left_wheel_joint', 'front_right_wheel_joint', 'rear_left_wheel_joint', 'rear_right_wheel_joint']","[-6.896058150865895e-18, -9.234756406648945e-18, -2.9210734733791246e-18, -8.261018703317636e-18]","[2.275463937213496e-17, 1.474293762427259e-17, 2.0046816764290564e-17, 2.3323497977494647e-17]","[nan, nan, nan, nan]"
1765492309.801274,4,617000000,base_link,"['front_left_wheel_joint', 'front_right_wheel_joint', 'rear_left_wheel_joint', 'rear_right_wheel_joint']","[-6.902022268522828e-18, -9.05109519738812e-18, -2.8079821219102488e-18, -8.107132010385138e-18]","[1.0805102580201974e-17, 1.2932471170432026e-17, 6.1700611023463514e-18, 4.876432515166128e-18]","[nan, nan, nan, nan]"
1765492309.8220656,4,638000000,base_link,"['front_left_wheel_joint', 'front_right_wheel_joint', 'rear_left_wheel_joint', 'rear_right_wheel_joint']","[-6.866746590968784e-18, -9.012668545813209e-18, -2.9584867679824903e-18, -8.178765969747641e-18]","[-1.2456773835241696e-17, -2.7425556377780882e-18, -1.4687540946536297e-17, -4.222387152461221e-18]","[nan, nan, nan, nan]"
1765492309.8426483,4,659000000,base_link,"['front_left_wheel_joint', 'front_right_wheel_joint', 'rear_left_wheel_joint', 'rear_right_wheel_joint']","[-6.926583905360608e-18, -9.005328243617265e-18, -2.89181443538358e-18, -8.241212383617136e-18]","[-1.5441573619639128e-17, -3.880307274919913e-18, 1.2353402582672241e-17, -3.2138518988630074e-18]","[nan, nan, nan, nan]"
1765492309.864314,4,680000000,base_link,"['front_left_wheel_joint', 'front_right_wheel_joint', 'rear_left_wheel_joint', 'rear_right_wheel_joint']","[-7.036474956758703e-18, -8.97157876873434e-18, -2.7845859964517053e-18, -8.152093296858069e-18]","[-8.678628683730335e-18, 1.2049550681650607e-17, 1.411378662809995e-17, 1.766188685047276e-17]","[nan, nan, nan, nan]"
1765492309.8851256,4,701000000,base_link,"['front_left_wheel_joint', 'front_right_wheel_joint', 'rear_left_wheel_joint', 'rear_right_wheel_joint']","[-7.129101794033595e-18, -9.017602452028815e-18, -2.812305215173431e-18, -8.155791178911337e-18]","[2.9899688714801973e-18, -9.211913217922769e-18, -9.644309410134464e-18, -5.3003955436658375e-18]","[nan, nan, nan, nan]"
1765492309.9060261,4,722000000,base_link,"['front_left_wheel_joint', 'front_right_wheel_joint', 'rear_left_wheel_joint', 'rear_right_wheel_joint']","[-6.780487826814216e-18, -8.958868511605505e-18, -2.779411644447054e-18, -8.058561100136216e-18]","[1.0398532501746285e-17, -2.9177241049207084e-18, 4.386111041659604e-19, 6.365519318797437e-18]","[nan, nan, nan, nan]"
1765492309.9271572,4,743000000,base_link,"['front_left_wheel_joint', 'front_right_wheel_joint', 'rear_left_wheel_joint', 'rear_right_wheel_joint']","[-6.486264085940637e-18, -8.704112708087672e-18, -2.5448384004991038e-18, -7.683550838276776e-18]","[4.946270448907614e-18, 1.0352484674703922e-17, 1.8827520212991882e-18, 1.0768403726972262e-17]","[nan, nan, nan, nan]"
1765492309.948349,4,764000000,base_link,"['front_left_wheel_joint', 'front_right_wheel_joint', 'rear_left_wheel_joint', 'rear_right_wheel_joint']","[-6.6068731279866645e-18, -8.762289157277142e-18, -2.596240958364158e-18, -7.76715249816301e-18]","[-2.0153040610708136e-18, -6.549860945449324e-18, 8.470650303682993e-18, 4.923801925813634e-18]","[nan, nan, nan, nan]"
1765492309.9688416,4,785000000,base_link,"['front_left_wheel_joint', 'front_right_wheel_joint', 'rear_left_wheel_joint', 'rear_right_wheel_joint']","[-6.312907120392355e-18, -8.433530389165767e-18, -2.1646342501354293e-18, -7.38028743006368e-18]","[1.3692946428237464e-17, 2.203552074494274e-17, 2.162225343442695e-17, 2.5596723501134535e-17]","[nan, nan, nan, nan]"
1765492309.9901986,4,806000000,base_link,"['front_left_wheel_joint', 'front_right_wheel_joint', 'rear_left_wheel_joint', 'rear_right_wheel_joint']","[-6.321652515413638e-18, -8.301180173947388e-18, -1.9677274986321333e-18, -7.260655467301063e-18]","[1.7548801020526667e-17, 1.1604845186094805e-17, 6.2450932038711666e-18, 1.702778292859195e-17]","[nan, nan, nan, nan]"
1765492310.0106711,4,827000000,base_link,"['front_left_wheel_joint', 'front_right_wheel_joint', 'rear_left_wheel_joint', 'rear_right_wheel_joint']","[-5.816915850005902e-18, -8.078834529718649e-18, -1.830327147010744e-18, -7.009460537552757e-18]","[1.883746542092509e-17, 1.6845832559622505e-17, 1.1355100914890478e-17, 1.8658435436260094e-17]","[nan, nan, nan, nan]"
1765492310.0322797,4,848000000,base_link,"['front_left_wheel_joint', 'front_right_wheel_joint', 'rear_left_wheel_joint', 'rear_right_wheel_joint']","[-5.407305452565381e-18, -7.896128488808293e-18, -1.6930254766983038e-18, -6.770053231044734e-18]","[7.256521999338787e-18, 4.089243611761864e-18, 8.211787998074823e-18, 4.726076831454633e-18]","[nan, nan, nan, nan]"
1765492310.0532756,4,869000000,base_link,"['front_left_wheel_joint', 'front_right_wheel_joint', 'rear_left_wheel_joint', 'rear_right_wheel_joint']","[-5.5010538220306256e-18, -7.899025686299855e-18, -1.7258680005983612e-18, -6.912815661032041e-18]","[-1.1880709862734613e-17, -1.4595999847557044e-17, -1.4299510756634755e-17, -9.248982187591504e-18]","[nan, nan, nan, nan]"
1765492310.0740433,4,890000000,base_link,"['front_left_wheel_joint', 'front_right_wheel_joint', 'rear_left_wheel_joint', 'rear_right_wheel_joint']","[-5.430313196614448e-18, -7.824835650655205e-18, -1.7504984862326812e-18, -6.8948896877086465e-18]","[7.779778919666506e-18, 1.452403950817093e-17, 1.6195610465555069e-18, 1.487692396315554e-17]","[nan, nan, nan, nan]"
1765492310.0952528,4,911000000,base_link,"['front_left_wheel_joint', 'front_right_wheel_joint', 'rear_left_wheel_joint', 'rear_right_wheel_joint']","[-5.4517971430964836e-18, -7.698594966381086e-18, -1.6488750153177794e-18, -6.879322127552398e-18]","[-2.4222671929361427e-17, -2.5085667036531564e-17, -6.469702550834825e-18, -1.38948672388257e-17]","[nan, nan, nan, nan]"
1765492310.1162953,4,932000000,base_link,"['front_left_wheel_joint', 'front_right_wheel_joint', 'rear_left_wheel_joint', 'rear_right_wheel_joint']","[-5.3971262612007604e-18, -7.468916388302629e-18, -1.3179654583996645e-18, -6.823846402980683e-18]","[1.8926046004443387e-17, 2.7980253209533636e-17, 3.450883707374233e-17, 1.6862843090507998e-17]","[nan, nan, nan, nan]"
1765492310.1376479,4,953000000,base_link,"['front_left_wheel_joint', 'front_right_wheel_joint', 'rear_left_wheel_joint', 'rear_right_wheel_joint']","[-5.678677736858806e-18, -7.637887028420457e-18, -1.4185005481730782e-18, -6.9168594064364924e-18]","[6.036640210626176e-18, 7.944245942428186e-19, 1.1698358710496228e-17, 1.058491772494372e-17]","[nan, nan, nan, nan]"
1765492310.1583154,4,974000000,base_link,"['front_left_wheel_joint', 'front_right_wheel_joint', 'rear_left_wheel_joint', 'rear_right_wheel_joint']","[-5.979828087175921e-18, -7.684756001448967e-18, -1.4144547419165966e-18, -6.975803274659792e-18]","[-1.900053107155524e-17, -6.027398081572492e-18, -3.2662089618770447e-18, -2.729389504055949e-18]","[nan, nan, nan, nan]"
1765492310.180391,4,995000000,base_link,"['front_left_wheel_joint', 'front_right_wheel_joint', 'rear_left_wheel_joint', 'rear_right_wheel_joint']","[-6.237401035399121e-18, -7.759691541999972e-18, -1.408651064158791e-18, -6.967543477299312e-18]","[-6.584199580735127e-18, 9.334350895214795e-18, 1.0233533251668394e-17, 1.2293974143442892e-17]","[nan, nan, nan, nan]"
1765492310.2008185,5,16000000,base_link,"['front_left_wheel_joint', 'front_right_wheel_joint', 'rear_left_wheel_joint', 'rear_right_wheel_joint']","[-6.3631915912049205e-18, -7.963137534845701e-18, -1.6913118312344232e-18, -7.207299120288004e-18]","[-1.3439617717864445e-17, -1.9795397753719425e-17, -2.5934675362555295e-17, -1.456961522274368e-17]","[nan, nan, nan, nan]"
1765492310.2220209,5,37000000,base_link,"['front_left_wheel_joint', 'front_right_wheel_joint', 'rear_left_wheel_joint', 'rear_right_wheel_joint']","[-6.378702773619145e-18, -8.066324406826022e-18, -1.9247990150923633e-18, -7.331293009822655e-18]","[1.65262467367961e-17, 6.023252269191459e-18, 8.453032940287994e-18, 5.4208487038082206e-18]","[nan, nan, nan, nan]"
1765492310.2430046,5,58000000,base_link,"['front_left_wheel_joint', 'front_right_wheel_joint', 'rear_left_wheel_joint', 'rear_right_wheel_joint']","[-6.4792421227247786e-18, -8.213155631562706e-18, -2.1574177383213168e-18, -7.553148839247246e-18]","[-3.604825398597299e-18, 1.3104777420889972e-17, -6.682068598316511e-19, 6.974496590811635e-18]","[nan, nan, nan, nan]"
1765492310.2709901,5,76000000,base_link,"['front_left_wheel_joint', 'front_right_wheel_joint', 'rear_left_wheel_joint', 'rear_right_wheel_joint']","[-6.615969465350728e-18, -8.318531632141953e-18, -2.271131219135477e-18, -7.713531534456109e-18]","[-3.1008128923261775e-17, -2.268924024935611e-17, -2.9467068280509443e-17, -3.3605905937440444e-17]","[nan, nan, nan, nan]"
1765492310.2907782,5,100000000,base_link,"['front_left_wheel_joint', 'front_right_wheel_joint', 'rear_left_wheel_joint', 'rear_right_wheel_joint']","[-6.729245966417273e-18, -8.418585585413866e-18, -2.3164478741081317e-18, -7.788914076645049e-18]","[-2.712789389872458e-18, 9.794270428951065e-18, 2.007146176358069e-18, 9.204076928709305e-18]","[nan, nan, nan, nan]"
1765492310.3115978,5,121000000,base_link,"['front_left_wheel_joint', 'front_right_wheel_joint', 'rear_left_wheel_joint', 'rear_right_wheel_joint']","[-6.971737961754217e-18, -8.533361252271944e-18, -2.5143994347529614e-18, -7.955843808507854e-18]","[-7.011583026188166e-18, -5.2184428688287176e-18, -6.962228612546391e-19, -8.151668050647421e-18]","[nan, nan, nan, nan]"
1765492310.332968,5,142000000,base_link,"['front_left_wheel_joint', 'front_right_wheel_joint', 'rear_left_wheel_joint', 'rear_right_wheel_joint']","[-7.198860679562824e-18, -8.675226933814426e-18, -2.6270764374764974e-18, -8.092375758423887e-18]","[-3.955060683529149e-18, -4.950203425879581e-19, 9.928350463875951e-19, -5.923109230681304e-18]","[nan, nan, nan, nan]"
1765492310.3537998,5,163000000,base_link,"['front_left_wheel_joint', 'front_right_wheel_joint', 'rear_left_wheel_joint', 'rear_right_wheel_joint']","[-7.499678577555024e-18, -9.048134076943859e-18, -2.9149583214648645e-18, -8.371681924052921e-18]","[-1.6579083559616942e-17, -1.2062665063624139e-17, -9.395395795269702e-18, -2.2257662625430165e-17]","[nan, nan, nan, nan]"
1765492310.3751493,5,184000000,base_link,"['front_left_wheel_joint', 'front_right_wheel_joint', 'rear_left_wheel_joint', 'rear_right_wheel_joint']","[-7.774456277046825e-18, -9.254314416199964e-18, -3.134302097695299e-18, -8.59014402718995e-18]","[-3.247776637465842e-17, -3.0859307895009944e-17, -3.6481318299299815e-17, -2.191368372637464e-17]","[nan, nan, nan, nan]"
1765492310.3967543,5,205000000,base_link,"['front_left_wheel_joint', 'front_right_wheel_joint', 'rear_left_wheel_joint', 'rear_right_wheel_joint']","[-8.061814841509182e-18, -9.530904413648325e-18, -3.2048028075904598e-18, -8.847209382678008e-18]","[-3.89766725006954e-17, -3.036864203628997e-17, -2.5256926420866873e-17, -2.1650187438148903e-17]","[nan, nan, nan, nan]"
1765492310.4176805,5,226000000,base_link,"['front_left_wheel_joint', 'front_right_wheel_joint', 'rear_left_wheel_joint', 'rear_right_wheel_joint']","[-8.560218680538876e-18, -9.967695798773509e-18, -3.50809154543575e-18, -9.26151899772203e-18]","[1.6158338918697286e-17, 1.1043022847416975e-17, 5.119549999648998e-18, 1.5071704574756337e-17]","[nan, nan, nan, nan]"
1765492310.4388754,5,247000000,base_link,"['front_left_wheel_joint', 'front_right_wheel_joint', 'rear_left_wheel_joint', 'rear_right_wheel_joint']","[-8.848661440250559e-18, -1.0176144139660174e-17, -3.559755498787345e-18, -9.35471764608853e-18]","[-2.301990333026382e-17, -3.290335923936979e-17, -2.857800768037503e-18, -1.498077648686261e-17]","[nan, nan, nan, nan]"
1765492310.4597204,5,268000000,base_link,"['front_left_wheel_joint', 'front_right_wheel_joint', 'rear_left_wheel_joint', 'rear_right_wheel_joint']","[-8.97601908129144e-18, -1.0118379281592682e-17, -3.3914226660705407e-18, -9.354012375334292e-18]","[-1.004596677531632e-17, -4.475710374964673e-18, 6.87268811976261e-18, -1.4372724826834797e-18]","[nan, nan, nan, nan]"
1765492310.4810033,5,289000000,base_link,"['front_left_wheel_joint', 'front_right_wheel_joint', 'rear_left_wheel_joint', 'rear_right_wheel_joint']","[-9.077266683301394e-18, -9.947642068211527e-18, -3.29210737895571e-18, -9.267929157968045e-18]","[1.9922706571607823e-17, 3.536036617422264e-17, 1.718572895293426e-17, 2.656171690673064e-17]","[nan, nan, nan, nan]"
1765492310.5022159,5,310000000,base_link,"['front_left_wheel_joint', 'front_right_wheel_joint', 'rear_left_wheel_joint', 'rear_right_wheel_joint']","[-9.451503720753095e-18, -1.013660596703323e-17, -3.4161491570743556e-18, -9.554395191950501e-18]","[-3.081220968214224e-17, -2.624334914490979e-17, -2.2136392575411685e-17, -2.6805204182042994e-17]","[nan, nan, nan, nan]"
1765492310.5230517,5,331000000,base_link,"['front_left_wheel_joint', 'front_right_wheel_joint', 'rear_left_wheel_joint', 'rear_right_wheel_joint']","[-9.668064625733726e-18, -1.0209215570321676e-17, -3.3789731489374735e-18, -9.547003723212573e-18]","[2.971539950823239e-18, 6.75644781836198e-18, 1.69638494436087e-17, 1.0784692692291014e-17]","[nan, nan, nan, nan]"
1765492310.5445075,5,352000000,base_link,"['front_left_wheel_joint', 'front_right_wheel_joint', 'rear_left_wheel_joint', 'rear_right_wheel_joint']","[-1.0281294391691023e-17, -1.0582377410269426e-17, -3.5379502150160226e-18, -9.94094904577844e-18]","[-2.49389039422309e-17, -1.480758009119884e-17, -8.360170699744043e-18, -2.0880718684210593e-17]","[nan, nan, nan, nan]"
1765492310.5658343,5,373000000,base_link,"['front_left_wheel_joint', 'front_right_wheel_joint', 'rear_left_wheel_joint', 'rear_right_wheel_joint']","[-1.057028423026974e-17, -1.0569157561784973e-17, -3.2774344655868645e-18, -9.89925110054854e-18]","[-5.65182029825708e-18, 1.5850112278250438e-17, 1.9799692332426508e-17, 1.1260943668438483e-17]","[nan, nan, nan, nan]"
1765492310.586709,5,394000000,base_link,"['front_left_wheel_joint', 'front_right_wheel_joint', 'rear_left_wheel_joint', 'rear_right_wheel_joint']","[-1.1116015251245196e-17, -1.0856924612302587e-17, -3.3621245947985948e-18, -1.0089335567490792e-17]","[-3.625073950943737e-17, -2.802299179996581e-17, -1.4937434780972562e-17, -1.6590735251908243e-17]","[nan, nan, nan, nan]"
1765492310.6077957,5,415000000,base_link,"['front_left_wheel_joint', 'front_right_wheel_joint', 'rear_left_wheel_joint', 'rear_right_wheel_joint']","[-1.164936404353969e-17, -1.1138470697917303e-17, -3.4534607662642993e-18, -1.0222506084800667e-17]","[-2.401325684173682e-17, -7.356448171028574e-18, -7.980439707696175e-18, -3.775173185421186e-18]","[nan, nan, nan, nan]"
1765492310.6289618,5,436000000,base_link,"['front_left_wheel_joint', 'front_right_wheel_joint', 'rear_left_wheel_joint', 'rear_right_wheel_joint']","[-1.2201263619306089e-17, -1.1385259137526352e-17, -3.754244930842973e-18, -1.0540323624135118e-17]","[-3.775688764094657e-17, -2.2682434761889098e-17, -2.7923308653862336e-17, -2.2340661976860205e-17]","[nan, nan, nan, nan]"
1765492310.6506832,5,457000000,base_link,"['front_left_wheel_joint', 'front_right_wheel_joint', 'rear_left_wheel_joint', 'rear_right_wheel_joint']","[-1.2570147745699281e-17, -1.1620098436918314e-17, -3.71601898960711e-18, -1.0632168317132377e-17]","[-2.6333412404145724e-17, -8.721152097113725e-18, 1.910988448886499e-18, -8.039392256077227e-18]","[nan, nan, nan, nan]"
1765492310.6720273,5,478000000,base_link,"['front_left_wheel_joint', 'front_right_wheel_joint', 'rear_left_wheel_joint', 'rear_right_wheel_joint']","[-1.2996384259008961e-17, -1.1851493911583843e-17, -3.739950354675873e-18, -1.0789763354630159e-17]","[-1.70922448715708e-17, -1.582405471997154e-17, 7.173428259574632e-19, -2.6944147383306782e-18]","[nan, nan, nan, nan]"
1765492310.6934276,5,499000000,base_link,"['front_left_wheel_joint', 'front_right_wheel_joint', 'rear_left_wheel_joint', 'rear_right_wheel_joint']","[-1.3552615758030012e-17, -1.2178577535499276e-17, -3.893721250951018e-18, -1.1032790598248528e-17]","[-5.110154324375118e-17, -4.412056499246202e-17, -3.2551426029920857e-17, -3.5794694989371884e-17]","[nan, nan, nan, nan]"
1765492310.7146487,5,520000000,base_link,"['front_left_wheel_joint', 'front_right_wheel_joint', 'rear_left_wheel_joint', 'rear_right_wheel_joint']","[-1.419951165302262e-17, -1.2446100090905387e-17, -3.999938321449934e-18, -1.1266590583860389e-17]","[-5.318138453357801e-18, 8.785629902530187e-18, 1.4211960255871822e-17, 1.032099190345671e-17]","[nan, nan, nan, nan]"
1765492310.7356875,5,541000000,base_link,"['front_left_wheel_joint', 'front_right_wheel_joint', 'rear_left_wheel_joint', 'rear_right_wheel_joint']","[-1.469190641049376e-17, -1.2693972995135719e-17, -4.073545789015372e-18, -1.1455557435717767e-17]","[-2.9293898895396696e-17, -3.1797765762773265e-18, -2.789365128985086e-18, -8.080195017980912e-18]","[nan, nan, nan, nan]"
1765492310.7565804,5,562000000,base_link,"['front_left_wheel_joint', 'front_right_wheel_joint', 'rear_left_wheel_joint', 'rear_right_wheel_joint']","[-1.5255784595322024e-17, -1.3044806864676437e-17, -4.2134187468134225e-18, -1.1689161743947008e-17]","[-3.7677248239064596e-17, -2.7497924836515117e-17, -1.6354323095932412e-17, -2.2196422780607705e-17]","[nan, nan, nan, nan]"
1765492310.777955,5,583000000,base_link,"['front_left_wheel_joint', 'front_right_wheel_joint', 'rear_left_wheel_joint', 'rear_right_wheel_joint']","[-1.6006657644728592e-17, -1.3379982563462046e-17, -4.386054163588747e-18, -1.2023034298629953e-17]","[-3.0860279416236024e-17, -1.221295860274514e-17, -1.583648822910067e-17, -7.93730992913934e-18]","[nan, nan, nan, nan]"
1765492310.803338,5,604000000,base_link,"['front_left_wheel_joint', 'front_right_wheel_joint', 'rear_left_wheel_joint', 'rear_right_wheel_joint']","[-1.601154905134274e-17, -1.3293239968059916e-17, -4.243237388397673e-18, -1.1911462632203491e-17]","[-3.8820045074362694e-17, -1.345234560731844e-17, -1.6952968545857939e-18, -2.7736174174469358e-17]","[nan, nan, nan, nan]"
1765492310.823879,5,625000000,base_link,"['front_left_wheel_joint', 'front_right_wheel_joint', 'rear_left_wheel_joint', 'rear_right_wheel_joint']","[-1.6255151373684786e-17, -1.3383447809466742e-17, -4.370252168765578e-18, -1.2025000799097134e-17]","[2.9398067472336957e-18, 1.0075089812775888e-18, -8.760521495845298e-18, -2.7473274616247678e-18]","[nan, nan, nan, nan]"
1765492310.8459432,5,646000000,base_link,"['front_left_wheel_joint', 'front_right_wheel_joint', 'rear_left_wheel_joint', 'rear_right_wheel_joint']","[-1.6333889121139317e-17, -1.3462066050159152e-17, -4.306802624879714e-18, -1.2106289194492831e-17]","[-7.375239022148496e-18, 9.87563025646816e-19, 2.12375541619354e-18, -9.201042406209335e-18]","[nan, nan, nan, nan]"
1765492310.866975,5,667000000,base_link,"['front_left_wheel_joint', 'front_right_wheel_joint', 'rear_left_wheel_joint', 'rear_right_wheel_joint']","[-1.6577418457289465e-17, -1.3813925911213335e-17, -4.6085906170328935e-18, -1.241140270945704e-17]","[-9.58669719287073e-18, -1.5508673378280806e-17, -1.700728669168323e-17, -1.645737819192922e-17]","[nan, nan, nan, nan]"
1765492310.8877625,5,688000000,base_link,"['front_left_wheel_joint', 'front_right_wheel_joint', 'rear_left_wheel_joint', 'rear_right_wheel_joint']","[-1.6586581954184783e-17, -1.3932217831581692e-17, -4.766680713908447e-18, -1.2546256357146164e-17]","[3.733343753412765e-18, 3.509652844796751e-18, -2.029686814422369e-18, -1.3949253838847385e-18]","[nan, nan, nan, nan]"
1765492310.9091341,5,709000000,base_link,"['front_left_wheel_joint', 'front_right_wheel_joint', 'rear_left_wheel_joint', 'rear_right_wheel_joint']","[-1.6508622295319288e-17, -1.3986935576545427e-17, -4.874251694694369e-18, -1.2607558755469332e-17]","[-1.1361059888992678e-18, -4.757546729138408e-18, -1.722319936115751e-17, -1.910089567775692e-18]","[nan, nan, nan, nan]"
1765492310.9329975,5,730000000,base_link,"['front_left_wheel_joint', 'front_right_wheel_joint', 'rear_left_wheel_joint', 'rear_right_wheel_joint']","[-1.6624662232789828e-17, -1.4066238292101712e-17, -4.950079686308309e-18, -1.2716906435986684e-17]","[5.5849798423241644e-18, 5.9394023051802366e-18, 1.273378695776267e-17, 9.682210399135343e-18]","[nan, nan, nan, nan]"
1765492310.9540887,5,751000000,base_link,"['front_left_wheel_joint', 'front_right_wheel_joint', 'rear_left_wheel_joint', 'rear_right_wheel_joint']","[-1.6398860525547946e-17, -1.389108755988385e-17, -4.8600693363583105e-18, -1.2613926952162744e-17]","[5.685748091232648e-18, 9.361460486679852e-18, 7.056581661690763e-18, 3.77729316546868e-18]","[nan, nan, nan, nan]"
1765492310.9747493,5,772000000,base_link,"['front_left_wheel_joint', 'front_right_wheel_joint', 'rear_left_wheel_joint', 'rear_right_wheel_joint']","[-1.6436637018325386e-17, -1.3853501223774066e-17, -4.772867008203934e-18, -1.2534271723678324e-17]","[1.601068194820653e-18, 4.372290059648278e-18, 1.0895219598030434e-17, 9.141645985752938e-18]","[nan, nan, nan, nan]"
1765492310.9956837,5,793000000,base_link,"['front_left_wheel_joint', 'front_right_wheel_joint', 'rear_left_wheel_joint', 'rear_right_wheel_joint']","[-1.6524860576614475e-17, -1.3912966680513758e-17, -5.0096854792509735e-18, -1.2657933757858486e-17]","[2.3229933171390833e-17, 1.335394463994117e-17, 7.48947935719538e-18, 1.4827353096802957e-17]","[nan, nan, nan, nan]"
1765492311.0171986,5,814000000,base_link,"['front_left_wheel_joint', 'front_right_wheel_joint', 'rear_left_wheel_joint', 'rear_right_wheel_joint']","[-1.645498399815066e-17, -1.399179805182636e-17, -5.0854332761745615e-18, -1.2777640233389649e-17]","[2.882033508129253e-17, 8.87576749357028e-18, 4.930909847076371e-18, 7.325007090799778e-18]","[nan, nan, nan, nan]"
1765492311.0378597,5,835000000,base_link,"['front_left_wheel_joint', 'front_right_wheel_joint', 'rear_left_wheel_joint', 'rear_right_wheel_joint']","[-1.6365927475116537e-17, -1.4005523563611132e-17, -5.108004748821884e-18, -1.2754950093302302e-17]","[6.313941978725811e-18, 4.573252622251347e-18, 7.445362047754449e-18, 9.80943466621542e-18]","[nan, nan, nan, nan]"
1765492311.059098,5,856000000,base_link,"['front_left_wheel_joint', 'front_right_wheel_joint', 'rear_left_wheel_joint', 'rear_right_wheel_joint']","[-1.6342541308898324e-17, -1.3993956272366055e-17, -5.099503392235447e-18, -1.2704380384414486e-17]","[-1.491078901687886e-17, -1.329510971904262e-17, -1.1911564999445635e-17, -7.298554779169817e-18]","[nan, nan, nan, nan]"
1765492311.079909,5,877000000,base_link,"['front_left_wheel_joint', 'front_right_wheel_joint', 'rear_left_wheel_joint', 'rear_right_wheel_joint']","[-1.6048511098080242e-17, -1.37423438417553e-17, -4.905613598280279e-18, -1.2466975197003699e-17]","[1.9400179658626224e-17, 2.0267615298292176e-17, 8.585481184905469e-18, 1.8143145357656775e-17]","[nan, nan, nan, nan]"
1765492311.1012518,5,898000000,base_link,"['front_left_wheel_joint', 'front_right_wheel_joint', 'rear_left_wheel_joint', 'rear_right_wheel_joint']","[-1.605986678072539e-17, -1.3853870456687396e-17, -5.043435249717419e-18, -1.256670334504477e-17]","[2.329430775332739e-18, -8.030013518273504e-18, -1.2824955911317768e-17, -1.0272640523939175e-17]","[nan, nan, nan, nan]"
1765492311.1217813,5,919000000,base_link,"['front_left_wheel_joint', 'front_right_wheel_joint', 'rear_left_wheel_joint', 'rear_right_wheel_joint']","[-1.5778686785101895e-17, -1.3850015117769656e-17, -4.93933534948387e-18, -1.249392529428463e-17]","[1.2993472681634864e-17, 1.099009215541e-18, 4.216385912740282e-18, 1.2044104535542791e-17]","[nan, nan, nan, nan]"
1765492311.1430416,5,940000000,base_link,"['front_left_wheel_joint', 'front_right_wheel_joint', 'rear_left_wheel_joint', 'rear_right_wheel_joint']","[-1.586062006293893e-17, -1.3943510059824094e-17, -4.933300004358552e-18, -1.2583422314632604e-17]","[-6.153202692021577e-18, -9.61518208333983e-19, -9.725010269676133e-18, 1.520045245573043e-17]","[nan, nan, nan, nan]"
1765492311.1643968,5,961000000,base_link,"['front_left_wheel_joint', 'front_right_wheel_joint', 'rear_left_wheel_joint', 'rear_right_wheel_joint']","[-1.5791949270915776e-17, -1.3837013015420532e-17, -4.8853854522993895e-18, -1.2462815976206753e-17]","[3.927850963097618e-18, 6.39525839069103e-18, -1.6235492964716675e-17, 8.34344712507143e-18]","[nan, nan, nan, nan]"
1765492311.185552,5,982000000,base_link,"['front_left_wheel_joint', 'front_right_wheel_joint', 'rear_left_wheel_joint', 'rear_right_wheel_joint']","[-1.5809923018866595e-17, -1.3922760721202905e-17, -4.958891855441319e-18, -1.2635907507936589e-17]","[-2.5402950707269234e-18, -1.2103977077712944e-17, -7.587459088892126e-18, -1.7542347848628902e-17]","[nan, nan, nan, nan]"
1765492311.2066424,6,3000000,base_link,"['front_left_wheel_joint', 'front_right_wheel_joint', 'rear_left_wheel_joint', 'rear_right_wheel_joint']","[-1.5767485914614505e-17, -1.3872523141392922e-17, -4.936422448999804e-18, -1.2620551574639005e-17]","[1.0933273098548807e-17, 1.3194415390741288e-17, 6.355260381421608e-18, 3.846427249097088e-18]","[nan, nan, nan, nan]"
1765492311.227913,6,24000000,base_link,"['front_left_wheel_joint', 'front_right_wheel_joint', 'rear_left_wheel_joint', 'rear_right_wheel_joint']","[-1.577616836439133e-17, -1.3974908320805883e-17, -5.090761963849172e-18, -1.2675797841916064e-17]","[-2.8172642881016733e-18, -1.2940297647346786e-17, -1.7332554667169398e-17, -1.2297922775671954e-17]","[nan, nan, nan, nan]"
1765492311.2489681,6,45000000,base_link,"['front_left_wheel_joint', 'front_right_wheel_joint', 'rear_left_wheel_joint', 'rear_right_wheel_joint']","[-1.551421000552743e-17, -1.3991275297197878e-17, -5.010124163785996e-18, -1.2587995695059613e-17]","[-1.1072217759787576e-17, -2.166102406215715e-17, -1.4183615332121688e-17, -2.253068503340711e-17]","[nan, nan, nan, nan]"
1765492311.2706854,6,66000000,base_link,"['front_left_wheel_joint', 'front_right_wheel_joint', 'rear_left_wheel_joint', 'rear_right_wheel_joint']","[-1.536992014878742e-17, -1.401298743285271e-17, -5.010411777708324e-18, -1.2695932447073095e-17]","[3.152157250286769e-17, 3.1437062147436397e-17, 1.8126688573624685e-17, 1.0215161336505567e-17]","[nan, nan, nan, nan]"
1765492311.291594,6,87000000,base_link,"['front_left_wheel_joint', 'front_right_wheel_joint', 'rear_left_wheel_joint', 'rear_right_wheel_joint']","[-1.5229593672651297e-17, -1.393392410085724e-17, -4.863211979425433e-18, -1.2661651674819686e-17]","[1.326455345611353e-17, 1.653292080903897e-17, 1.686445841574573e-17, 4.038099327781572e-18]","[nan, nan, nan, nan]"
1765492311.3129091,6,108000000,base_link,"['front_left_wheel_joint', 'front_right_wheel_joint', 'rear_left_wheel_joint', 'rear_right_wheel_joint']","[-1.5200415203447488e-17, -1.3931916022013725e-17, -4.8178405034069394e-18, -1.2627465218748986e-17]","[-8.844552941479894e-18, -1.4738424185764758e-17, -6.187066342364494e-18, -1.1481075423386173e-17]","[nan, nan, nan, nan]"
1765492311.3374243,6,129000000,base_link,"['front_left_wheel_joint', 'front_right_wheel_joint', 'rear_left_wheel_joint', 'rear_right_wheel_joint']","[-1.522514663242134e-17, -1.391120319175832e-17, -4.865339781288705e-18, -1.2639570182170371e-17]","[-2.0144941612169034e-18, 1.051806167852838e-17, -6.981703674712187e-18, 9.794423414735181e-18]","[nan, nan, nan, nan]"
1765492311.358097,6,150000000,base_link,"['front_left_wheel_joint', 'front_right_wheel_joint', 'rear_left_wheel_joint', 'rear_right_wheel_joint']","[-1.5177104258310507e-17, -1.3900881409487026e-17, -5.029922591326507e-18, -1.2620067639214759e-17]","[-6.306463176511967e-18, -3.582095710278195e-18, -1.0021798130206743e-17, 1.2181082402815533e-18]","[nan, nan, nan, nan]"
1765492311.3792892,6,171000000,base_link,"['front_left_wheel_joint', 'front_right_wheel_joint', 'rear_left_wheel_joint', 'rear_right_wheel_joint']","[-1.5270943397471558e-17, -1.400970068801686e-17, -5.194749403409375e-18, -1.2700427281959373e-17]","[-1.5629028253129278e-17, -2.2276645295079987e-17, -2.5317188276804536e-17, -1.5472562665078228e-17]","[nan, nan, nan, nan]"
1765492311.4005105,6,192000000,base_link,"['front_left_wheel_joint', 'front_right_wheel_joint', 'rear_left_wheel_joint', 'rear_right_wheel_joint']","[-1.5203388906770176e-17, -1.3994744479608114e-17, -5.2488673887387755e-18, -1.266909553037355e-17]","[2.029116419177846e-17, 1.6279723137803456e-17, 6.034959830450258e-18, 2.6057404109365678e-17]","[nan, nan, nan, nan]"
1765492311.4215333,6,213000000,base_link,"['front_left_wheel_joint', 'front_right_wheel_joint', 'rear_left_wheel_joint', 'rear_right_wheel_joint']","[-1.5095866137170226e-17, -1.3934433674466915e-17, -5.208876741874287e-18, -1.2593350546083781e-17]","[4.421371649898849e-18, -4.1044496693438515e-18, 3.3197721090804824e-18, 5.592948715062573e-18]","[nan, nan, nan, nan]"
1765492311.4421744,6,234000000,base_link,"['front_left_wheel_joint', 'front_right_wheel_joint', 'rear_left_wheel_joint', 'rear_right_wheel_joint']","[-1.471244251808158e-17, -1.3639872843447705e-17, -4.983946725607973e-18, -1.232430132296246e-17]","[2.3888089616248463e-17, 1.1636273965275937e-17, 2.341530622451194e-17, 2.2172389600344274e-17]","[nan, nan, nan, nan]"
1765492311.4634714,6,255000000,base_link,"['front_left_wheel_joint', 'front_right_wheel_joint', 'rear_left_wheel_joint', 'rear_right_wheel_joint']","[-1.452450804333271e-17, -1.3492017071477733e-17, -4.91334796478986e-18, -1.2213912491668355e-17]","[7.105915142554634e-18, 1.8157497193380296e-18, -5.8797072211615236e-18, 8.918569450658789e-18]","[nan, nan, nan, nan]"
1765492311.4843013,6,276000000,base_link,"['front_left_wheel_joint', 'front_right_wheel_joint', 'rear_left_wheel_joint', 'rear_right_wheel_joint']","[-1.4532769736565185e-17, -1.3547471012308609e-17, -5.013666031802698e-18, -1.2248314732415914e-17]","[1.5043519155597242e-17, 1.7117295883992762e-17, -2.5140517841112673e-18, 2.189084437746942e-17]","[nan, nan, nan, nan]"
1765492311.5050006,6,297000000,base_link,"['front_left_wheel_joint', 'front_right_wheel_joint', 'rear_left_wheel_joint', 'rear_right_wheel_joint']","[-1.437333945591367e-17, -1.3429372830436373e-17, -4.9987103988519825e-18, -1.2200413406998447e-17]","[2.1447147949826143e-17, 1.1646577943060867e-17, 1.4266732454667333e-17, 1.113797386355563e-17]","[nan, nan, nan, nan]"
1765492311.5264227,6,318000000,base_link,"['front_left_wheel_joint', 'front_right_wheel_joint', 'rear_left_wheel_joint', 'rear_right_wheel_joint']","[-1.4305934177788077e-17, -1.3488980811734417e-17, -5.212930619400924e-18, -1.2183870851232594e-17]","[-1.651380638388763e-17, -2.1823057534081448e-17, -2.9322732197257595e-17, -2.6548921029359745e-17]","[nan, nan, nan, nan]"
1765492311.5475717,6,339000000,base_link,"['front_left_wheel_joint', 'front_right_wheel_joint', 'rear_left_wheel_joint', 'rear_right_wheel_joint']","[-1.4403155906610995e-17, -1.3776197928222628e-17, -5.434455033029389e-18, -1.2328957024266026e-17]","[-1.3485721321449056e-18, -1.7250606336633437e-17, -1.5011252558145257e-17, -1.3474852915547416e-17]","[nan, nan, nan, nan]"
1765492311.567856,6,360000000,base_link,"['front_left_wheel_joint', 'front_right_wheel_joint', 'rear_left_wheel_joint', 'rear_right_wheel_joint']","[-1.4407402525967374e-17, -1.3889823519934957e-17, -5.662374961236593e-18, -1.2582589227429222e-17]","[-2.0384181901500885e-17, -2.789487833543396e-17, -1.9287513909491422e-17, -3.1629200531994037e-17]","[nan, nan, nan, nan]"
1765492311.589068,6,381000000,base_link,"['front_left_wheel_joint', 'front_right_wheel_joint', 'rear_left_wheel_joint', 'rear_right_wheel_joint']","[-1.4246004670974358e-17, -1.3869305290668021e-17, -5.723654855017433e-18, -1.2561166757593125e-17]","[2.24799149747488e-17, 1.519386312071744e-17, 2.7326791352230824e-18, 1.6111030943979307e-17]","[nan, nan, nan, nan]"
1765492311.6101708,6,402000000,base_link,"['front_left_wheel_joint', 'front_right_wheel_joint', 'rear_left_wheel_joint', 'rear_right_wheel_joint']","[-1.4218287810391914e-17, -1.3904751392698864e-17, -5.8202391380448185e-18, -1.2523966917912407e-17]","[6.222572127579565e-18, 1.986423091598506e-17, 2.858697264651836e-18, 1.009183566444895e-17]","[nan, nan, nan, nan]"
1765492311.631471,6,423000000,base_link,"['front_left_wheel_joint', 'front_right_wheel_joint', 'rear_left_wheel_joint', 'rear_right_wheel_joint']","[-1.4372530168834572e-17, -1.3940322852454303e-17, -5.9547914651906324e-18, -1.2603327662691657e-17]","[-2.329649609702315e-17, -2.2755641515741306e-17, -2.4128658222876143e-17, -2.1181179166774368e-17]","[nan, nan, nan, nan]"
1765492311.6534004,6,444000000,base_link,"['front_left_wheel_joint', 'front_right_wheel_joint', 'rear_left_wheel_joint', 'rear_right_wheel_joint']","[-1.452308345576317e-17, -1.4103150201751645e-17, -6.0921713205538924e-18, -1.2783473948967251e-17]","[-1.780486434295851e-17, -1.5230052616136897e-17, -2.080041046322476e-17, -1.9609825836045616e-17]","[nan, nan, nan, nan]"
1765492311.673168,6,465000000,base_link,"['front_left_wheel_joint', 'front_right_wheel_joint', 'rear_left_wheel_joint', 'rear_right_wheel_joint']","[-1.4505567956881597e-17, -1.397699322985809e-17, -6.0661517721808344e-18, -1.2691172794824948e-17]","[1.1547877040133032e-17, 1.4263673161440888e-17, 1.1695180915313374e-17, 1.8215215826835593e-17]","[nan, nan, nan, nan]"
1765492311.6942024,6,486000000,base_link,"['front_left_wheel_joint', 'front_right_wheel_joint', 'rear_left_wheel_joint', 'rear_right_wheel_joint']","[-1.471098361932683e-17, -1.4180430093877008e-17, -6.271752369263959e-18, -1.2844198462069423e-17]","[-9.018039386278817e-18, 3.819300191597875e-18, -9.527913348997358e-18, -8.976569809436515e-18]","[nan, nan, nan, nan]"
1765492311.716866,6,507000000,base_link,"['front_left_wheel_joint', 'front_right_wheel_joint', 'rear_left_wheel_joint', 'rear_right_wheel_joint']","[-1.4675396975456646e-17, -1.4258400471416924e-17, -6.215430370929473e-18, -1.2794133750775922e-17]","[2.1014038881440828e-17, 6.99053569391152e-18, 1.312868815767192e-17, 1.172187348070128e-17]","[nan, nan, nan, nan]"
1765492311.737502,6,528000000,base_link,"['front_left_wheel_joint', 'front_right_wheel_joint', 'rear_left_wheel_joint', 'rear_right_wheel_joint']","[-1.486042815006824e-17, -1.4303676701152362e-17, -6.30302373628979e-18, -1.2921342402218111e-17]","[2.086041906122683e-17, 2.819592149128224e-17, 1.1071560102013637e-17, 1.7186742475434794e-17]","[nan, nan, nan, nan]"
1765492311.7584236,6,549000000,base_link,"['front_left_wheel_joint', 'front_right_wheel_joint', 'rear_left_wheel_joint', 'rear_right_wheel_joint']","[-1.4896871662351756e-17, -1.4339751317906266e-17, -6.374750241762771e-18, -1.2902918267788695e-17]","[-1.1400435751707732e-17, -1.4709424128887873e-17, -6.213974955495616e-18, -1.641410969533803e-17]","[nan, nan, nan, nan]"
1765492311.7802677,6,570000000,base_link,"['front_left_wheel_joint', 'front_right_wheel_joint', 'rear_left_wheel_joint', 'rear_right_wheel_joint']","[-1.4852534922183916e-17, -1.4302492857678983e-17, -6.2062822792150565e-18, -1.2796740853572157e-17]","[6.5411596790321065e-18, 4.380895688081016e-18, 2.0696454141182493e-17, 1.0139466661158927e-17]","[nan, nan, nan, nan]"
1765492311.8011627,6,591000000,base_link,"['front_left_wheel_joint', 'front_right_wheel_joint', 'rear_left_wheel_joint', 'rear_right_wheel_joint']","[-1.4859767055077157e-17, -1.4289060702099638e-17, -6.255196928178854e-18, -1.2821570824349749e-17]","[-1.952045865151984e-17, -1.8168588089567613e-17, -1.9543468588858237e-17, -2.869826914612216e-17]","[nan, nan, nan, nan]"
1765492311.8218699,6,612000000,base_link,"['front_left_wheel_joint', 'front_right_wheel_joint', 'rear_left_wheel_joint', 'rear_right_wheel_joint']","[-1.479792774618647e-17, -1.4214229454375154e-17, -6.374840757527732e-18, -1.2805585538126836e-17]","[7.230644605662046e-19, -8.42829736914395e-18, -9.99939734186309e-18, -9.664866438024428e-18]","[nan, nan, nan, nan]"
1765492311.8432727,6,633000000,base_link,"['front_left_wheel_joint', 'front_right_wheel_joint', 'rear_left_wheel_joint', 'rear_right_wheel_joint']","[-1.4874687238872464e-17, -1.4424353285707493e-17, -6.660677562719096e-18, -1.303147945816804e-17]","[1.2607413101688846e-17, -5.1004511764686305e-18, -6.70039255685596e-18, 9.462606961421724e-18]","[nan, nan, nan, nan]"
