Timestamp,header_stamp_sec,header_stamp_nanosec,header_frame_id,child_frame_id,pose_pose_position_x,pose_pose_position_y,pose_pose_position_z,pose_pose_orientation_x,pose_pose_orientation_y,pose_pose_orientation_z,pose_pose_orientation_w,pose_covariance,twist_twist_linear_x,twist_twist_linear_y,twist_twist_linear_z,twist_twist_angular_x,twist_twist_angular_y,twist_twist_angular_z,twist_covariance
1765492307.0280368,1,908000000,odom,base_link,0.0,0.0,0.0,0.0,0.0,0.0,1.0,<array len=36>,0.0,0.0,0.0,0.0,0.0,0.0,<array len=36>
1765492307.049294,1,929000000,odom,base_link,0.0,0.0,0.0,0.0,0.0,0.0,1.0,<array len=36>,0.0,0.0,0.0,0.0,0.0,0.0,<array len=36>
1765492307.0699172,1,950000000,odom,base_link,0.0,0.0,0.0,0.0,0.0,0.0,1.0,<array len=36>,0.0,0.0,0.0,0.0,0.0,0.0,<array len=36>
1765492307.0904684,1,971000000,odom,base_link,0.0,0.0,0.0,0.0,0.0,0.0,1.0,<array len=36>,0.0,0.0,0.0,0.0,0.0,0.0,<array len=36>
1765492307.114865,1,992000000,odom,base_link,0.0,0.0,0.0,0.0,0.0,0.0,1.0,<array len=36>,0.0,0.0,0.0,0.0,0.0,0.0,<array len=36>
1765492307.1328373,2,13000000,odom,base_link,0.0,0.0,0.0,0.0,0.0,0.0,1.0,<array len=36>,0.0,0.0,0.0,0.0,0.0,0.0,<array len=36>
1765492307.1536016,2,34000000,odom,base_link,0.0,0.0,0.0,0.0,0.0,0.0,1.0,<array len=36>,0.0,0.0,0.0,0.0,0.0,0.0,<array len=36>
1765492307.1753979,2,55000000,odom,base_link,0.0,0.0,0.0,0.0,0.0,0.0,1.0,<array len=36>,0.0,0.0,0.0,0.0,0.0,0.0,<array len=36>
1765492307.1962895,2,76000000,odom,base_link,-1.1773438091086086e-19,2.952528997775821e-38,0.0,0.0,0.0,-2.507788273003484e-19,1.0,<array len=36>,-1.1212798181986798e-18,0.0,0.0,0.0,0.0,-4.7767395676257044e-18,<array len=36>
1765492307.221478,2,94000000,odom,base_link,-1.157965010395961e-19,2.855551840710798e-38,0.0,0.0,0.0,-2.496503195369629e-19,1.0,<array len=36>,-1.099747819629071e-18,0.0,0.0,0.0,0.0,-4.751661617328249e-18,<array len=36>
1765492307.2548208,2,115000000,odom,base_link,-9.646472292445225e-20,1.9067335087142428e-38,0.0,0.0,0.0,-2.4115726492071497e-19,1.0,<array len=36>,-9.156356471038946e-19,0.0,0.0,0.0,0.0,-4.589889148447339e-18,<array len=36>
1765492307.2758615,2,139000000,odom,base_link,-9.795152695500242e-20,1.9787490758900038e-38,0.0,0.0,0.0,-2.4320762578456957e-19,1.0,<array len=36>,-9.280256806918129e-19,0.0,0.0,0.0,0.0,-4.624061829511582e-18,<array len=36>
1765492307.29685,2,160000000,odom,base_link,-1.050749270120326e-19,2.3271047504076419e-38,0.0,0.0,0.0,-2.458224325144038e-19,1.0,<array len=36>,-9.95867585996861e-19,0.0,0.0,0.0,0.0,-4.673867671984614e-18,<array len=36>
1765492307.317597,2,181000000,odom,base_link,-9.675210041027071e-20,1.9167804533696846e-38,0.0,0.0,0.0,-2.4718831572237195e-19,1.0,<array len=36>,2.046772474566943e-19,0.0,0.0,0.0,0.0,7.685507263217277e-20,<array len=36>
1765492307.338448,2,202000000,odom,base_link,-9.548480634748217e-20,1.8533095280761537e-38,0.0,0.0,0.0,-2.536498650694665e-19,1.0,<array len=36>,1.9521471615173828e-19,0.0,0.0,0.0,0.0,-7.130000808613225e-20,<array len=36>
1765492307.360954,2,223000000,odom,base_link,-1.0101881091466425e-19,2.1386036280217495e-38,0.0,0.0,0.0,-2.61879344352325e-19,1.0,<array len=36>,-4.160226177517242e-20,0.0,0.0,0.0,0.0,-3.8982446330720544e-19,<array len=36>
1765492307.3816555,2,244000000,odom,base_link,-8.357470360087311e-20,1.223036533363792e-38,0.0,0.0,0.0,-2.6297817812698215e-19,1.0,<array len=36>,1.3692212718218249e-19,0.0,0.0,0.0,0.0,-3.76581949379288e-19,<array len=36>
1765492307.4027584,2,265000000,odom,base_link,-1.2033050633211757e-19,3.1332567398289725e-38,0.0,0.0,0.0,-2.567275729438247e-19,1.0,<array len=36>,-1.4529123161986087e-19,0.0,0.0,0.0,0.0,-2.077169605603986e-19,<array len=36>
1765492307.4236815,2,286000000,odom,base_link,-1.3090540385188507e-19,3.664259521652084e-38,0.0,0.0,0.0,-2.454075832886737e-19,1.0,<array len=36>,-3.2526955658680833e-19,0.0,0.0,0.0,0.0,3.391871302282442e-20,<array len=36>
1765492307.4447134,2,307000000,odom,base_link,-1.2368894364617304e-19,3.3175911270435846e-38,0.0,0.0,0.0,-2.3497806940861676e-19,1.0,<array len=36>,-2.686108314161082e-19,0.0,0.0,0.0,0.0,3.556532506828544e-19,<array len=36>
1765492307.4660137,2,328000000,odom,base_link,-1.237744057103242e-19,3.3214959549870414e-38,0.0,0.0,0.0,-2.2192968050835363e-19,1.0,<array len=36>,-2.1671995043486113e-19,0.0,0.0,0.0,0.0,7.6094597798041155e-19,<array len=36>
1765492307.4876015,2,349000000,odom,base_link,-1.4336075732083048e-19,4.183998015767412e-38,0.0,0.0,0.0,-2.184290335247989e-19,1.0,<array len=36>,-5.693909878091161e-19,0.0,0.0,0.0,0.0,8.485551352796836e-19,<array len=36>
1765492307.507421,2,370000000,odom,base_link,-1.6892849024691456e-19,5.301188366838615e-38,0.0,0.0,0.0,-2.185241974483901e-19,1.0,<array len=36>,-4.628379420456837e-19,0.0,0.0,0.0,0.0,7.276833427701852e-19,<array len=36>
1765492307.528797,2,391000000,odom,base_link,-1.3392279793749047e-19,3.7847814676094344e-38,0.0,0.0,0.0,-2.1466446393424423e-19,1.0,<array len=36>,-2.8737086529571346e-20,0.0,0.0,0.0,0.0,5.855832257986582e-19,<array len=36>
1765492307.5500064,2,412000000,odom,base_link,-1.5205552368787436e-19,4.562771013841817e-38,0.0,0.0,0.0,-2.1438826478521576e-19,1.0,<array len=36>,-2.701579051590573e-19,0.0,0.0,0.0,0.0,3.9218675473144845e-19,<array len=36>
1765492307.570956,2,433000000,odom,base_link,-1.299152208570308e-19,3.59891546849194e-38,0.0,0.0,0.0,-2.209515554123355e-19,1.0,<array len=36>,-5.84839537781543e-20,0.0,0.0,0.0,0.0,1.8630954209867953e-20,<array len=36>
1765492307.5924006,2,454000000,odom,base_link,-1.2472453161359103e-19,3.3718563995390733e-38,0.0,0.0,0.0,-2.1648374133526687e-19,1.0,<array len=36>,1.7748786387847074e-19,0.0,0.0,0.0,0.0,3.7053184562513725e-20,<array len=36>
1765492307.612924,2,475000000,odom,base_link,-1.4127506455147844e-19,4.091053300070605e-38,0.0,0.0,0.0,-2.1806232629325616e-19,1.0,<array len=36>,2.633659590041538e-19,0.0,0.0,0.0,0.0,8.797545812072809e-21,<array len=36>
1765492307.6386683,2,496000000,odom,base_link,-1.459843146740748e-19,4.2942286823797963e-38,0.0,0.0,0.0,-2.1337660139142025e-19,1.0,<array len=36>,-1.1487158796747136e-19,0.0,0.0,0.0,0.0,2.4530715101407054e-20,<array len=36>
1765492307.6592147,2,517000000,odom,base_link,-1.5412578283909738e-19,4.6387110101007865e-38,0.0,0.0,0.0,-2.0974404557119719e-19,1.0,<array len=36>,-1.971675382117262e-20,0.0,0.0,0.0,0.0,8.846131836225668e-20,<array len=36>
1765492307.6806836,2,538000000,odom,base_link,-1.5413720261691118e-19,4.639188188934429e-38,0.0,0.0,0.0,-2.081089472133076e-19,1.0,<array len=36>,-2.3068554057029115e-19,0.0,0.0,0.0,0.0,2.4462110855291127e-19,<array len=36>
1765492307.7023957,2,559000000,odom,base_link,-1.4649482246680334e-19,4.324930655542558e-38,0.0,0.0,0.0,-2.0309479719534533e-19,1.0,<array len=36>,-2.0733610336392896e-19,0.0,0.0,0.0,0.0,2.550275074270757e-19,<array len=36>
1765492307.7235284,2,580000000,odom,base_link,-1.2038738012551506e-19,3.258323432781716e-38,0.0,0.0,0.0,-2.054504784458574e-19,1.0,<array len=36>,1.9893032786631733e-19,0.0,0.0,0.0,0.0,2.402256732837848e-19,<array len=36>
1765492307.7443779,2,601000000,odom,base_link,-1.111104228575463e-19,2.8808151456931106e-38,0.0,0.0,0.0,-2.014806695417013e-19,1.0,<array len=36>,3.321323030145572e-19,0.0,0.0,0.0,0.0,2.265891780898839e-19,<array len=36>
1765492307.765173,2,622000000,odom,base_link,-1.0125602363770378e-19,2.483573149193123e-38,0.0,0.0,0.0,-2.0163065935606945e-19,1.0,<array len=36>,5.035215162037493e-19,0.0,0.0,0.0,0.0,1.5454068981195569e-19,<array len=36>
1765492307.7864702,2,643000000,odom,base_link,-8.947663411461095e-20,2.0026824185580476e-38,0.0,0.0,0.0,-2.0661692401174115e-19,1.0,<array len=36>,6.158149381171462e-19,0.0,0.0,0.0,0.0,2.8419489553645156e-20,<array len=36>
1765492307.8076084,2,664000000,odom,base_link,-1.0238026333886245e-19,2.5389771466245076e-38,0.0,0.0,0.0,-2.0899849607374162e-19,1.0,<array len=36>,4.2013865836134624e-19,0.0,0.0,0.0,0.0,-1.1245140720754766e-19,<array len=36>
1765492307.8286252,2,685000000,odom,base_link,-1.357306774624698e-19,3.8835070119003795e-38,0.0,0.0,0.0,-1.9415387867417388e-19,1.0,<array len=36>,-1.461266413043288e-19,0.0,0.0,0.0,0.0,2.151733289844502e-19,<array len=36>
1765492307.850258,2,706000000,odom,base_link,-1.5865170521168715e-19,4.753580731828494e-38,0.0,0.0,0.0,-1.854424158060436e-19,1.0,<array len=36>,-4.527741176584835e-19,0.0,0.0,0.0,0.0,3.0549054734586324e-19,<array len=36>
1765492307.8710978,2,727000000,odom,base_link,-1.9328086817082138e-19,6.001887730025119e-38,0.0,0.0,0.0,-1.750361206430609e-19,1.0,<array len=36>,-8.764270907915973e-19,0.0,0.0,0.0,0.0,5.065626421525468e-19,<array len=36>
1765492307.8920143,2,748000000,odom,base_link,-2.23706799489499e-19,7.042089052331499e-38,0.0,0.0,0.0,-1.6684374210014756e-19,1.0,<array len=36>,-1.2783825273798829e-18,0.0,0.0,0.0,0.0,7.575844173636884e-19,<array len=36>
1765492307.9139848,2,769000000,odom,base_link,-2.438799954476056e-19,7.718403959179983e-38,0.0,0.0,0.0,-1.68410477535144e-19,1.0,<array len=36>,-1.3476164962737436e-18,0.0,0.0,0.0,0.0,7.731051150209071e-19,<array len=36>
1765492307.9349139,2,790000000,odom,base_link,-2.5118039853733403e-19,7.962478721520446e-38,0.0,0.0,0.0,-1.6592005098576988e-19,1.0,<array len=36>,-1.0995211530939435e-18,0.0,0.0,0.0,0.0,5.377871940648372e-19,<array len=36>
1765492307.9561503,2,811000000,odom,base_link,-2.3300669321842867e-19,7.354561125860052e-38,0.0,0.0,0.0,-1.6858388477905315e-19,1.0,<array len=36>,-7.081427429213446e-19,0.0,0.0,0.0,0.0,3.2111487670457865e-19,<array len=36>
1765492307.977393,2,832000000,odom,base_link,-2.16806490774957e-19,6.802267978401036e-38,0.0,0.0,0.0,-1.7233355090495442e-19,1.0,<array len=36>,-2.2405354861081023e-19,0.0,0.0,0.0,0.0,5.147751882107353e-20,<array len=36>
1765492307.998796,2,853000000,odom,base_link,-2.1085633777849238e-19,6.596191985266755e-38,0.0,0.0,0.0,-1.7400375043288277e-19,1.0,<array len=36>,1.2238534962863408e-19,0.0,0.0,0.0,0.0,-1.3638111109971777e-19,<array len=36>
1765492308.0193853,2,874000000,odom,base_link,-1.8768440379649017e-19,5.80570612544568e-38,0.0,0.0,0.0,-1.6713560394083984e-19,1.0,<array len=36>,5.351961109630052e-19,0.0,0.0,0.0,0.0,2.42833065581759e-20,<array len=36>
1765492308.041118,2,895000000,odom,base_link,-2.0574021982145579e-19,6.395429390257766e-38,0.0,0.0,0.0,-1.5947564641565524e-19,1.0,<array len=36>,4.3276360681788883e-19,0.0,0.0,0.0,0.0,1.2275056324028067e-19,<array len=36>
1765492308.0620081,2,916000000,odom,base_link,-2.17616006045003e-19,6.771920847874949e-38,0.0,0.0,0.0,-1.575488019283865e-19,1.0,<array len=36>,1.4657797308024396e-19,0.0,0.0,0.0,0.0,2.1019205429841433e-19,<array len=36>
1765492308.0832422,2,937000000,odom,base_link,-2.376419417176493e-19,7.400670147415224e-38,0.0,0.0,0.0,-1.5641869992427034e-19,1.0,<array len=36>,-1.9843286612088046e-19,0.0,0.0,0.0,0.0,3.0314001867969894e-19,<array len=36>
1765492308.104588,2,958000000,odom,base_link,-2.458392238840972e-19,7.65555095846618e-38,0.0,0.0,0.0,-1.5451461416146652e-19,1.0,<array len=36>,-3.3317034386290227e-19,0.0,0.0,0.0,0.0,3.7122164326507242e-19,<array len=36>
1765492308.1259549,2,979000000,odom,base_link,-2.5877744560629004e-19,8.057363964727677e-38,0.0,0.0,0.0,-1.5604816246205513e-19,1.0,<array len=36>,-6.770765886647615e-19,0.0,0.0,0.0,0.0,2.111893615006613e-19,<array len=36>
1765492308.1519587,3,0,odom,base_link,-2.686061521822823e-19,8.371422622160223e-38,0.0,0.0,0.0,-1.6348386853749675e-19,1.0,<array len=36>,-5.987231653412053e-19,0.0,0.0,0.0,0.0,-7.634708803507769e-20,<array len=36>
1765492308.1732776,3,21000000,odom,base_link,-2.6546793604215987e-19,8.265940100675247e-38,0.0,0.0,0.0,-1.7263868253975574e-19,1.0,<array len=36>,-4.557326666395889e-19,0.0,0.0,0.0,0.0,-2.8742629735941645e-19,<array len=36>
1765492308.1940706,3,42000000,odom,base_link,-2.6189873497454627e-19,8.142238407745067e-38,0.0,0.0,0.0,-1.7394222054421958e-19,1.0,<array len=36>,-2.3101707863711347e-19,0.0,0.0,0.0,0.0,-3.337813451418928e-19,<array len=36>
1765492308.2168705,3,63000000,odom,base_link,-2.5168786694073807e-19,7.77959974747792e-38,0.0,0.0,0.0,-1.8120746806839366e-19,1.0,<array len=36>,-5.570136244420131e-20,0.0,0.0,0.0,0.0,-5.084353125128976e-19,<array len=36>
1765492308.237424,3,84000000,odom,base_link,-2.711986478518115e-19,8.499204892002353e-38,0.0,0.0,0.0,-1.8761690026635587e-19,1.0,<array len=36>,-1.1829716424306388e-19,0.0,0.0,0.0,0.0,-6.013092915104901e-19,<array len=36>
1765492308.2601695,3,105000000,odom,base_link,-2.804868432423421e-19,8.840168363281289e-38,0.0,0.0,0.0,-1.7947644450387953e-19,1.0,<array len=36>,-1.131494386672385e-19,0.0,0.0,0.0,0.0,-3.046204945977654e-19,<array len=36>
1765492308.2809522,3,126000000,odom,base_link,-2.8140788636210393e-19,8.873117567850667e-38,0.0,0.0,0.0,-1.7826147093592423e-19,1.0,<array len=36>,-1.518090506661364e-19,0.0,0.0,0.0,0.0,-1.0710073135558756e-19,<array len=36>
1765492308.302753,3,147000000,odom,base_link,-2.953438205371196e-19,9.355846288203326e-38,0.0,0.0,0.0,-1.6812988990882917e-19,1.0,<array len=36>,-3.185246244054635e-19,0.0,0.0,0.0,0.0,1.107110597217257e-19,<array len=36>
1765492308.324331,3,168000000,odom,base_link,-3.2406701371350738e-19,1.0319506105732794e-37,0.0,0.0,0.0,-1.673689564804562e-19,1.0,<array len=36>,-6.893252073597045e-19,0.0,0.0,0.0,0.0,2.6359069691309586e-19,<array len=36>
1765492308.3450742,3,189000000,odom,base_link,-3.5330975511706715e-19,1.129204880876117e-37,0.0,0.0,0.0,-1.6520680637534233e-19,1.0,<array len=36>,-7.820105453833848e-19,0.0,0.0,0.0,0.0,4.2685893125740246e-19,<array len=36>
1765492308.3663347,3,210000000,odom,base_link,-3.5159122231284966e-19,1.1234442329977123e-37,0.0,0.0,0.0,-1.700005207275922e-19,1.0,<array len=36>,-6.771845625762598e-19,0.0,0.0,0.0,0.0,1.804937862149972e-19,<array len=36>
1765492308.3874307,3,231000000,odom,base_link,-3.548018587667348e-19,1.134287076712002e-37,0.0,0.0,0.0,-1.67715812779082e-19,1.0,<array len=36>,-6.989902133774343e-19,0.0,0.0,0.0,0.0,2.0086967917794806e-19,<array len=36>
1765492308.4087744,3,252000000,odom,base_link,-3.420114244649212e-19,1.0907602257416764e-37,0.0,0.0,0.0,-1.725920293412886e-19,1.0,<array len=36>,-4.444533707409634e-19,0.0,0.0,0.0,0.0,-8.49931320468471e-20,<array len=36>
1765492308.4300556,3,273000000,odom,base_link,-3.7579535778527886e-19,1.2104354502361767e-37,0.0,0.0,0.0,-1.8164506720894006e-19,1.0,<array len=36>,-4.926508959216283e-19,0.0,0.0,0.0,0.0,-2.719259186377855e-19,<array len=36>
1765492308.4520154,3,294000000,odom,base_link,-3.738694993923146e-19,1.2033388132184075e-37,0.0,0.0,0.0,-1.8684708380774112e-19,1.0,<array len=36>,-1.9580708833568378e-19,0.0,0.0,0.0,0.0,-4.1219576061711793e-19,<array len=36>
1765492308.4721267,3,315000000,odom,base_link,-4.0520676144203945e-19,1.3167006579026677e-37,0.0,0.0,0.0,-1.7490067993875891e-19,1.0,<array len=36>,-5.106241821827548e-19,0.0,0.0,0.0,0.0,-9.333636592698182e-20,<array len=36>
1765492308.4936552,3,336000000,odom,base_link,-4.1163439805100567e-19,1.339424051831886e-37,0.0,0.0,0.0,-1.7862574527202883e-19,1.0,<array len=36>,-5.412622788978131e-19,0.0,0.0,0.0,0.0,-2.0780823796088955e-19,<array len=36>
1765492308.515156,3,357000000,odom,base_link,-4.2487296714824066e-19,1.3862391404898523e-37,0.0,0.0,0.0,-1.7500075555383536e-19,1.0,<array len=36>,-7.891575493649411e-19,0.0,0.0,0.0,0.0,-4.5880499286603066e-20,<array len=36>
1765492308.5359328,3,378000000,odom,base_link,-4.2161400208845406e-19,1.3748938919724782e-37,0.0,0.0,0.0,-1.731235203817008e-19,1.0,<array len=36>,-4.3636804098262005e-19,0.0,0.0,0.0,0.0,1.6231517766169912e-19,<array len=36>
1765492308.5567884,3,399000000,odom,base_link,-4.391125698773499e-19,1.4356140093986258e-37,0.0,0.0,0.0,-1.738769779372481e-19,1.0,<array len=36>,-6.213625760479551e-19,0.0,0.0,0.0,0.0,2.4704963562843733e-19,<array len=36>
1765492308.5780177,3,420000000,odom,base_link,-4.331223589721823e-19,1.414471405743641e-37,0.0,0.0,0.0,-1.7907559735097063e-19,1.0,<array len=36>,-2.6586283362040636e-19,0.0,0.0,0.0,0.0,-7.952223642308248e-20,<array len=36>
1765492308.5992928,3,441000000,odom,base_link,-4.387116568379265e-19,1.4345835445498948e-37,0.0,0.0,0.0,-1.8075741368817427e-19,1.0,<array len=36>,-2.5787865511352945e-19,0.0,0.0,0.0,0.0,-4.060320792658165e-20,<array len=36>
1765492308.620581,3,462000000,odom,base_link,-4.380916976696713e-19,1.4322642813698165e-37,0.0,0.0,0.0,-1.9334193008084417e-19,1.0,<array len=36>,-1.2589267163267307e-19,0.0,0.0,0.0,0.0,-3.4935570527635487e-19,<array len=36>
1765492308.642001,3,483000000,odom,base_link,-4.455208439264423e-19,1.4620871160457134e-37,0.0,0.0,0.0,-2.080882429853572e-19,1.0,<array len=36>,-2.276842079808408e-19,0.0,0.0,0.0,0.0,-6.659947162601198e-19,<array len=36>
1765492308.6666367,3,501000000,odom,base_link,-4.907133735292648e-19,1.6503399158534532e-37,0.0,0.0,0.0,-2.084690983766157e-19,1.0,<array len=36>,-5.631703992290717e-19,0.0,0.0,0.0,0.0,-6.601065969125816e-19,<array len=36>
1765492308.687593,3,525000000,odom,base_link,-4.987972777907606e-19,1.6836416714818428e-37,0.0,0.0,0.0,-2.0348228737900817e-19,1.0,<array len=36>,-6.875858957431329e-19,0.0,0.0,0.0,0.0,-4.779717581196458e-19,<array len=36>
1765492308.7091193,3,546000000,odom,base_link,-5.1661888895592195e-19,1.7557147860961708e-37,0.0,0.0,0.0,-2.00931847495735e-19,1.0,<array len=36>,-8.040841176423447e-19,0.0,0.0,0.0,0.0,-3.9735735392008726e-19,<array len=36>
1765492308.7302427,3,567000000,odom,base_link,-5.127714242719457e-19,1.7405369006972924e-37,0.0,0.0,0.0,-1.9355872345324893e-19,1.0,<array len=36>,-7.733459698735733e-19,0.0,0.0,0.0,0.0,-1.721182182188462e-20,<array len=36>
1765492308.7510307,3,588000000,odom,base_link,-5.2004966569462785e-19,1.7681368405377292e-37,0.0,0.0,0.0,-1.856529327364382e-19,1.0,<array len=36>,-7.719087809774892e-19,0.0,0.0,0.0,0.0,4.1425681858428413e-19,<array len=36>
1765492308.772719,3,609000000,odom,base_link,-5.298220854265188e-19,1.8038292997188085e-37,0.0,0.0,0.0,-1.7958372471700753e-19,1.0,<array len=36>,-3.628402272815921e-19,0.0,0.0,0.0,0.0,5.383242339982319e-19,<array len=36>
1765492308.793953,3,630000000,odom,base_link,-5.460342110963434e-19,1.8623370177116792e-37,0.0,0.0,0.0,-1.8130490385913202e-19,1.0,<array len=36>,-4.498755552912684e-19,0.0,0.0,0.0,0.0,4.224263527595448e-19,<array len=36>
1765492308.8151503,3,651000000,odom,base_link,-5.760612834338262e-19,1.9713867323387693e-37,0.0,0.0,0.0,-1.8186641501421563e-19,1.0,<array len=36>,-5.661180426467106e-19,0.0,0.0,0.0,0.0,3.6315109488608235e-19,<array len=36>
1765492308.8363323,3,672000000,odom,base_link,-5.75859069426553e-19,1.97063925197492e-37,0.0,0.0,0.0,-1.8778174830009895e-19,1.0,<array len=36>,-6.008347157581678e-19,0.0,0.0,0.0,0.0,1.100376219647647e-19,<array len=36>
1765492308.8574767,3,693000000,odom,base_link,-5.87910379065835e-19,2.0168528484943925e-37,0.0,0.0,0.0,-1.9569189815601955e-19,1.0,<array len=36>,-6.462925082972145e-19,0.0,0.0,0.0,0.0,-1.9121838894440459e-19,<array len=36>
1765492308.8794281,3,714000000,odom,base_link,-5.850508005023078e-19,2.0056902817185758e-37,0.0,0.0,0.0,-1.946651606844207e-19,1.0,<array len=36>,-5.259877626265648e-19,0.0,0.0,0.0,0.0,-2.8726544699834456e-19,<array len=36>
1765492308.8995817,3,735000000,odom,base_link,-5.969336477204348e-19,2.0513036131722037e-37,0.0,0.0,0.0,-1.8919344337173583e-19,1.0,<array len=36>,-4.84756539277062e-19,0.0,0.0,0.0,0.0,-1.5025789547816609e-19,<array len=36>
1765492308.9210598,3,756000000,odom,base_link,-6.128235324533956e-19,2.1102509528299736e-37,0.0,0.0,0.0,-1.8178054824881771e-19,1.0,<array len=36>,-3.501166573292339e-19,0.0,0.0,0.0,0.0,1.6355574361527499e-21,<array len=36>
1765492308.9419503,3,777000000,odom,base_link,-6.5106487929636775e-19,2.250279001936945e-37,0.0,0.0,0.0,-1.8438869176764765e-19,1.0,<array len=36>,-7.162458082839449e-19,0.0,0.0,0.0,0.0,6.462964823716902e-20,<array len=36>
1765492308.963248,3,798000000,odom,base_link,-6.60670258500565e-19,2.2856276522520534e-37,0.0,0.0,0.0,-1.8362020786707046e-19,1.0,<array len=36>,-6.929512327117082e-19,0.0,0.0,0.0,0.0,2.2993695788474627e-19,<array len=36>
1765492308.984724,3,819000000,odom,base_link,-6.788360987617403e-19,2.352598739321059e-37,0.0,0.0,0.0,-1.8504474848036004e-19,1.0,<array len=36>,-8.93193316756495e-19,0.0,0.0,0.0,0.0,1.8324594674401434e-19,<array len=36>
1765492309.0055192,3,840000000,odom,base_link,-6.684234680770226e-19,2.313522770228693e-37,0.0,0.0,0.0,-1.9022995659216941e-19,1.0,<array len=36>,-6.808554319674973e-19,0.0,0.0,0.0,0.0,-1.9743108960638675e-20,<array len=36>
1765492309.0270493,3,861000000,odom,base_link,-6.756350924294507e-19,2.3409202985487666e-37,0.0,0.0,0.0,-1.8967791133288043e-19,1.0,<array len=36>,-5.98205333105279e-19,0.0,0.0,0.0,0.0,-1.5042596350595606e-19,<array len=36>
1765492309.0485067,3,882000000,odom,base_link,-6.758467116635907e-19,2.3417264604186415e-37,0.0,0.0,0.0,-1.912713313723646e-19,1.0,<array len=36>,-2.360174511164073e-19,0.0,0.0,0.0,0.0,-1.310978972327047e-19,<array len=36>
1765492309.0696244,3,903000000,odom,base_link,-6.682521943110153e-19,2.312132601629303e-37,0.0,0.0,0.0,-1.9840265863178874e-19,1.0,<array len=36>,-7.220891248047726e-20,0.0,0.0,0.0,0.0,-2.815704907565402e-19,<array len=36>
1765492309.0904822,3,924000000,odom,base_link,-6.966685935660784e-19,2.427456725913457e-37,0.0,0.0,0.0,-2.0743385587173883e-19,1.0,<array len=36>,-1.6983328385083806e-19,0.0,0.0,0.0,0.0,-4.2645918840721743e-19,<array len=36>
1765492309.112338,3,945000000,odom,base_link,-7.258631480211379e-19,2.547715003721668e-37,0.0,0.0,0.0,-2.044863808057221e-19,1.0,<array len=36>,-5.470445708963365e-19,0.0,0.0,0.0,0.0,-2.715509374010051e-19,<array len=36>
1765492309.133231,3,966000000,odom,base_link,-7.39999008690865e-19,2.6055743154112293e-37,0.0,0.0,0.0,-2.0482234854155277e-19,1.0,<array len=36>,-6.129896786801356e-19,0.0,0.0,0.0,0.0,-2.8846547064137896e-19,<array len=36>
1765492309.1548653,3,987000000,odom,base_link,-7.717652875165131e-19,2.734935949051212e-37,0.0,0.0,0.0,-2.0240707341874247e-19,1.0,<array len=36>,-9.1351024621831e-19,0.0,0.0,0.0,0.0,-2.121093723119601e-19,<array len=36>
1765492309.1759386,4,8000000,odom,base_link,-7.818764226990236e-19,2.775765963523189e-37,0.0,0.0,0.0,-2.01405295172692e-19,1.0,<array len=36>,-1.0821355084572231e-18,0.0,0.0,0.0,0.0,-5.71930769695857e-20,<array len=36>
1765492309.2030666,4,29000000,odom,base_link,-8.071021477061043e-19,2.878765418296537e-37,0.0,0.0,0.0,-2.069058821846933e-19,1.0,<array len=36>,-1.0517481346669147e-18,0.0,0.0,0.0,0.0,1.0056641658010944e-20,<array len=36>
1765492309.222655,4,50000000,odom,base_link,-8.087624250011673e-19,2.885667770055042e-37,0.0,0.0,0.0,-2.0882899409352066e-19,1.0,<array len=36>,-7.895169236193281e-19,0.0,0.0,0.0,0.0,-8.271644357711496e-20,<array len=36>
1765492309.2437823,4,71000000,odom,base_link,-8.2595900927966e-19,2.9596188554569337e-37,0.0,0.0,0.0,-2.212045765521361e-19,1.0,<array len=36>,-8.18666672274241e-19,0.0,0.0,0.0,0.0,-3.120424382968265e-19,<array len=36>
1765492309.2650352,4,92000000,odom,base_link,-8.257395322511725e-19,2.9586339803394563e-37,0.0,0.0,0.0,-2.2753264404198526e-19,1.0,<array len=36>,-5.140404260443769e-19,0.0,0.0,0.0,0.0,-4.785822975855794e-19,<array len=36>
1765492309.2870984,4,113000000,odom,base_link,-8.276142833143976e-19,2.9672761477765014e-37,0.0,0.0,0.0,-2.3344415477515213e-19,1.0,<array len=36>,-4.355986725273728e-19,0.0,0.0,0.0,0.0,-6.1026399242781025e-19,<array len=36>
1765492309.3075407,4,134000000,odom,base_link,-8.303022324466785e-19,2.9798192425056306e-37,0.0,0.0,0.0,-2.3319766439072978e-19,1.0,<array len=36>,-2.2095318800546903e-19,0.0,0.0,0.0,0.0,-5.007958515435502e-19,<array len=36>
1765492309.328193,4,155000000,odom,base_link,-8.671802249180987e-19,3.1503419947831964e-37,0.0,0.0,0.0,-2.2919939371843507e-19,1.0,<array len=36>,-5.5635999920887185e-19,0.0,0.0,0.0,0.0,-3.8800761190312976e-19,<array len=36>
1765492309.349467,4,176000000,odom,base_link,-9.031080290236027e-19,3.3161246700139653e-37,0.0,0.0,0.0,-2.32233413986537e-19,1.0,<array len=36>,-7.347525689899316e-19,0.0,0.0,0.0,0.0,-2.1007309398858573e-19,<array len=36>
1765492309.3703234,4,197000000,odom,base_link,-9.175422338556495e-19,3.3837911058945664e-37,0.0,0.0,0.0,-2.365588518012387e-19,1.0,<array len=36>,-8.743114438521641e-19,0.0,0.0,0.0,0.0,-1.7192776684291876e-19,<array len=36>
1765492309.3916752,4,218000000,odom,base_link,-9.604987646001504e-19,3.5884168445798046e-37,0.0,0.0,0.0,-2.397965128866625e-19,1.0,<array len=36>,-1.265566488435747e-18,0.0,0.0,0.0,0.0,-1.2099729736210285e-19,<array len=36>
1765492309.4136007,4,239000000,odom,base_link,-9.711922536325718e-19,3.6406440227647517e-37,0.0,0.0,0.0,-2.4860514934537904e-19,1.0,<array len=36>,-1.3418097255799422e-18,0.0,0.0,0.0,0.0,-2.934759038980821e-19,<array len=36>
1765492309.4346724,4,260000000,odom,base_link,-9.648895863730799e-19,3.6087194081861325e-37,0.0,0.0,0.0,-2.579203146245058e-19,1.0,<array len=36>,-9.305653471903021e-19,0.0,0.0,0.0,0.0,-5.470651601156342e-19,<array len=36>
1765492309.455785,4,281000000,odom,base_link,-9.80085910484302e-19,3.689287834146542e-37,0.0,0.0,0.0,-2.722633361763581e-19,1.0,<array len=36>,-7.331226805780947e-19,0.0,0.0,0.0,0.0,-7.624747083775472e-19,<array len=36>
1765492309.476543,4,302000000,odom,base_link,-9.756117592833826e-19,3.664608025442478e-37,0.0,0.0,0.0,-2.7934539575455464e-19,1.0,<array len=36>,-5.530430993117472e-19,0.0,0.0,0.0,0.0,-8.149817895869732e-19,<array len=36>
1765492309.4982855,4,323000000,odom,base_link,-9.718038945748291e-19,3.6430632814199514e-37,0.0,0.0,0.0,-2.864505468936078e-19,1.0,<array len=36>,-1.0766790452075154e-19,0.0,0.0,0.0,0.0,-8.886482667989547e-19,<array len=36>
1765492309.5193608,4,344000000,odom,base_link,-9.710564509527872e-19,3.638720739348882e-37,0.0,0.0,0.0,-2.945353553215842e-19,1.0,<array len=36>,1.2933588550888393e-21,0.0,0.0,0.0,0.0,-8.748610662134284e-19,<array len=36>
1765492309.5403178,4,365000000,odom,base_link,-1.007206991101832e-18,3.850274656940377e-37,0.0,0.0,0.0,-2.906672909439528e-19,1.0,<array len=36>,-4.030229021785947e-19,0.0,0.0,0.0,0.0,-6.237519298942259e-19,<array len=36>
1765492309.5619965,4,386000000,odom,base_link,-1.0384341381451751e-18,4.0328991396414355e-37,0.0,0.0,0.0,-2.941587338208984e-19,1.0,<array len=36>,-5.556974062940336e-19,0.0,0.0,0.0,0.0,-4.1705519322933507e-19,<array len=36>
1765492309.5830095,4,407000000,odom,base_link,-1.0750096880501672e-18,4.248453681702642e-37,0.0,0.0,0.0,-2.951818027428081e-19,1.0,<array len=36>,-9.466469406360502e-19,0.0,0.0,0.0,0.0,-3.0164584739529967e-19,<array len=36>
1765492309.6043305,4,428000000,odom,base_link,-1.128822598491694e-18,4.5673009537079916e-37,0.0,0.0,0.0,-2.973289337872473e-19,1.0,<array len=36>,-1.4954162277796727e-18,0.0,0.0,0.0,0.0,-2.072073694026586e-19,<array len=36>
1765492309.625111,4,449000000,odom,base_link,-1.181454942536124e-18,4.879501875805193e-37,0.0,0.0,0.0,-2.9584419533209273e-19,1.0,<array len=36>,-2.0037951579365482e-18,0.0,0.0,0.0,0.0,-2.4930285914448378e-20,<array len=36>
1765492309.6469078,4,470000000,odom,base_link,-1.1778921025253179e-18,4.858411000823975e-37,0.0,0.0,0.0,-2.961238671475312e-19,1.0,<array len=36>,-1.6255724897474907e-18,0.0,0.0,0.0,0.0,-1.0393478483006414e-19,<array len=36>
1765492309.6681476,4,491000000,odom,base_link,-1.1887781809246059e-18,4.923693700977989e-37,0.0,0.0,0.0,-3.0356591791118736e-19,1.0,<array len=36>,-1.431848026470774e-18,0.0,0.0,0.0,0.0,-1.7918445886264694e-19,<array len=36>
1765492309.6889286,4,512000000,odom,base_link,-1.1994049984971659e-18,4.988639409731046e-37,0.0,0.0,0.0,-3.075832648954958e-19,1.0,<array len=36>,-1.1847172423523716e-18,0.0,0.0,0.0,0.0,-2.362183267178606e-19,<array len=36>
1765492309.7100778,4,533000000,odom,base_link,-1.2073575561802033e-18,5.037537382333027e-37,0.0,0.0,0.0,-3.0728775586149735e-19,1.0,<array len=36>,-7.479519779858003e-19,0.0,0.0,0.0,0.0,-1.8969184903333428e-19,<array len=36>
1765492309.7327716,4,554000000,odom,base_link,-1.1436179279133348e-18,4.642462324111195e-37,0.0,0.0,0.0,-3.125386676119968e-19,1.0,<array len=36>,3.6035252021704626e-19,0.0,0.0,0.0,0.0,-3.1798994818865053e-19,<array len=36>
1765492309.7600427,4,575000000,odom,base_link,-1.1021381141335552e-18,4.381896789264199e-37,0.0,0.0,0.0,-3.156356444289499e-19,1.0,<array len=36>,7.214665561120324e-19,0.0,0.0,0.0,0.0,-3.7165290059845313e-19,<array len=36>
1765492309.780582,4,596000000,odom,base_link,-1.1095868360773465e-18,4.429033342947785e-37,0.0,0.0,0.0,-3.171783341204254e-19,1.0,<array len=36>,7.542032842596203e-19,0.0,0.0,0.0,0.0,-2.592841182712017e-19,<array len=36>
1765492309.8012896,4,617000000,odom,base_link,-1.0915219086771327e-18,4.316156670342035e-37,0.0,0.0,0.0,-3.07660449369034e-19,1.0,<array len=36>,1.0274579982860381e-18,0.0,0.0,0.0,0.0,-1.470180448347298e-21,<array len=36>
1765492309.8221,4,638000000,odom,base_link,-1.0975521324020553e-18,4.353057591222311e-37,0.0,0.0,0.0,-3.042724168655456e-19,1.0,<array len=36>,1.0457659407442704e-18,0.0,0.0,0.0,0.0,5.743502849431944e-20,<array len=36>
1765492309.842674,4,659000000,odom,base_link,-1.0995131455741304e-18,4.365041409560313e-37,0.0,0.0,0.0,-3.068309917525826e-19,1.0,<array len=36>,4.2004554608766146e-19,0.0,0.0,0.0,0.0,1.0871763541741462e-19,<array len=36>
1765492309.8643684,4,680000000,odom,base_link,-1.0946297788888647e-18,4.335327259993716e-37,0.0,0.0,0.0,-3.016457310020527e-19,1.0,<array len=36>,7.150795471133856e-20,0.0,0.0,0.0,0.0,2.664745414647097e-19,<array len=36>
1765492309.8851585,4,701000000,odom,base_link,-1.1015387760059794e-18,4.376807096672812e-37,0.0,0.0,0.0,-2.9872847636798004e-19,1.0,<array len=36>,7.664819115587734e-20,0.0,0.0,0.0,0.0,3.5142586195134165e-19,<array len=36>
1765492309.9060729,4,722000000,odom,base_link,-1.0797039939969968e-18,4.244319452031131e-37,0.0,0.0,0.0,-3.0804490285411125e-19,1.0,<array len=36>,1.1255156838223772e-19,0.0,0.0,0.0,0.0,-7.322923525273118e-21,<array len=36>
1765492309.9271762,4,743000000,odom,base_link,-1.0326373700826703e-18,3.956309780923287e-37,0.0,0.0,0.0,-3.0387421765067736e-19,1.0,<array len=36>,6.182358316131847e-19,0.0,0.0,0.0,0.0,7.584746949878653e-21,<array len=36>
1765492309.9483292,4,764000000,odom,base_link,-1.0453850770102585e-18,4.033624571664586e-37,0.0,0.0,0.0,-3.0262537620158025e-19,1.0,<array len=36>,5.155054148940122e-19,0.0,0.0,0.0,0.0,8.010696287624275e-20,<array len=36>
1765492309.9688158,4,785000000,odom,base_link,-9.868364670838877e-19,3.6790180617239317e-37,0.0,0.0,0.0,-3.0303633017641603e-19,1.0,<array len=36>,1.0266029695712052e-18,0.0,0.0,0.0,0.0,-2.64876033211984e-20,<array len=36>
1765492309.9903338,4,806000000,odom,base_link,-9.68955635996328e-19,3.571118610831564e-37,0.0,0.0,0.0,-3.0040011169812803e-19,1.0,<array len=36>,1.2626965715204862e-18,0.0,0.0,0.0,0.0,-3.184067295519217e-20,<array len=36>
1765492310.0106103,4,827000000,odom,base_link,-9.236312338617024e-19,3.2956530472837717e-37,0.0,0.0,0.0,-3.073642504871375e-19,1.0,<array len=36>,1.4864072393837636e-18,0.0,0.0,0.0,0.0,1.2964806989976143e-20,<array len=36>
1765492310.0323658,4,848000000,odom,base_link,-8.842645763703667e-19,3.051625630402997e-37,0.0,0.0,0.0,-3.1251925609323045e-19,1.0,<array len=36>,1.413074225831469e-18,0.0,0.0,0.0,0.0,-1.6466739890577392e-19,<array len=36>
1765492310.053239,4,869000000,odom,base_link,-8.95324753779661e-19,3.120843115738211e-37,0.0,0.0,0.0,-3.1330691986889255e-19,1.0,<array len=36>,1.4291459355295057e-18,0.0,0.0,0.0,0.0,-2.0345797461547316e-19,<array len=36>
1765492310.0740829,4,890000000,odom,base_link,-8.897093164866961e-19,3.085762721130744e-37,0.0,0.0,0.0,-3.114065757553299e-19,1.0,<array len=36>,9.250204818780183e-19,0.0,0.0,0.0,0.0,-1.5943324912216952e-19,<array len=36>
1765492310.0952797,4,911000000,odom,base_link,-8.806926883766273e-19,3.029835658041541e-37,0.0,0.0,0.0,-3.0885925318298775e-19,1.0,<array len=36>,8.405995011400092e-19,0.0,0.0,0.0,0.0,-1.6112650447351894e-19,<array len=36>
1765492310.1165204,4,932000000,odom,base_link,-8.534440895046518e-19,2.860385677890615e-37,0.0,0.0,0.0,-3.1300751122228506e-19,1.0,<array len=36>,6.684489938766626e-19,0.0,0.0,0.0,0.0,-1.07490680669474e-19,<array len=36>
1765492310.1376827,4,953000000,odom,base_link,-8.79609441745484e-19,3.022886640439137e-37,0.0,0.0,0.0,-3.080464728893171e-19,1.0,<array len=36>,4.4334615475062426e-20,0.0,0.0,0.0,0.0,8.519587055073529e-20,<array len=36>
1765492310.1582904,4,974000000,odom,base_link,-8.95977960523802e-19,3.1224385547770125e-37,0.0,0.0,0.0,-3.00144871032064e-19,1.0,<array len=36>,-6.2210166108764744e-21,0.0,0.0,0.0,0.0,2.5070569213007243e-19,<array len=36>
1765492310.1804416,4,995000000,odom,base_link,-9.089147892035737e-19,3.199107915149105e-37,0.0,0.0,0.0,-2.924992944733029e-19,1.0,<array len=36>,-1.8290926397027376e-19,0.0,0.0,0.0,0.0,3.601386910862346e-19,<array len=36>
1765492310.2008452,5,16000000,odom,base_link,-9.435131906514054e-19,3.4020047063465204e-37,0.0,0.0,0.0,-2.939347102981277e-19,1.0,<array len=36>,-5.982904978550405e-19,0.0,0.0,0.0,0.0,2.8427700733067294e-19,<array len=36>
1765492310.2220619,5,37000000,odom,base_link,-9.628579677177577e-19,3.515552398105595e-37,0.0,0.0,0.0,-2.930335001372116e-19,1.0,<array len=36>,-1.042036935362916e-18,0.0,0.0,0.0,0.0,3.8045735400140105e-19,<array len=36>
1765492310.2430327,5,58000000,odom,base_link,-9.91370425981652e-19,3.6830729500797362e-37,0.0,0.0,0.0,-2.945010800931944e-19,1.0,<array len=36>,-1.064390326058747e-18,0.0,0.0,0.0,0.0,2.580074818309083e-19,<array len=36>
1765492310.272222,5,76000000,odom,base_link,-1.0123410314502985e-18,3.8067229563096455e-37,0.0,0.0,0.0,-2.9513380867899773e-19,1.0,<array len=36>,-1.1415063984565547e-18,0.0,0.0,0.0,0.0,9.344014454791863e-20,<array len=36>
1765492310.2908273,5,100000000,odom,base_link,-1.0259109860424882e-18,3.8869164156112085e-37,0.0,0.0,0.0,-2.9582954905927697e-19,1.0,<array len=36>,-1.1313814612031655e-18,0.0,0.0,0.0,0.0,-6.37855581474246e-20,<array len=36>
1765492310.3116398,5,121000000,odom,base_link,-1.0552482873272834e-18,4.058569602395758e-37,0.0,0.0,0.0,-2.892726221261568e-19,1.0,<array len=36>,-1.0812757453647125e-18,0.0,0.0,0.0,0.0,8.844954200390368e-20,<array len=36>
1765492310.3330142,5,142000000,odom,base_link,-1.080362554751904e-18,4.203230026793131e-37,0.0,0.0,0.0,-2.8673631315959246e-19,1.0,<array len=36>,-1.136223272586315e-18,0.0,0.0,0.0,0.0,1.1959428115910918e-19,<array len=36>
1765492310.3538384,5,163000000,odom,base_link,-1.1307746490631772e-18,4.493652162016062e-37,0.0,0.0,0.0,-2.893598383505961e-19,1.0,<array len=36>,-1.3447912349423049e-18,0.0,0.0,0.0,0.0,9.757627668252182e-20,<array len=36>
1765492310.3751833,5,184000000,odom,base_link,-1.1680994332366141e-18,4.708586833502141e-37,0.0,0.0,0.0,-2.864898986159803e-19,1.0,<array len=36>,-1.4672586424980125e-18,0.0,0.0,0.0,0.0,1.6630243067718264e-19,<array len=36>
1765492310.3966432,5,205000000,odom,base_link,-1.2043172149704303e-18,4.918737371273563e-37,0.0,0.0,0.0,-2.937514295689725e-19,1.0,<array len=36>,-1.6991069421708736e-18,0.0,0.0,0.0,0.0,3.9583228386747145e-20,<array len=36>
1765492310.4177272,5,226000000,odom,base_link,-1.2714619540378504e-18,5.314584984604927e-37,0.0,0.0,0.0,-2.957923214818628e-19,1.0,<array len=36>,-2.059177778195885e-18,0.0,0.0,0.0,0.0,-1.2418474963249536e-19,<array len=36>
1765492310.4387503,5,247000000,odom,base_link,-1.297533198194456e-18,5.468404283359371e-37,0.0,0.0,0.0,-2.942036826615418e-19,1.0,<array len=36>,-2.0682918423100273e-18,0.0,0.0,0.0,0.0,-1.4223560956094045e-19,<array len=36>
1765492310.4597752,5,268000000,odom,base_link,-1.293493232049239e-18,5.444662020047541e-37,0.0,0.0,0.0,-2.9348102702193987e-19,1.0,<array len=36>,-1.549700790343451e-18,0.0,0.0,0.0,0.0,-7.849883183511925e-20,<array len=36>
1765492310.481032,5,289000000,odom,base_link,-1.28313840234274e-18,5.384989842301237e-37,0.0,0.0,0.0,-2.827928416719373e-19,1.0,<array len=36>,-1.0956092295821557e-18,0.0,0.0,0.0,0.0,7.042013226748571e-20,<array len=36>
1765492310.502254,5,310000000,odom,base_link,-1.3226953202454545e-18,5.608344765096079e-37,0.0,0.0,0.0,-2.818490329659116e-19,1.0,<array len=36>,-1.1274105264288051e-18,0.0,0.0,0.0,0.0,2.2671231624878034e-19,<array len=36>
1765492310.5230908,5,331000000,odom,base_link,-1.3326323183958465e-18,5.663890818944195e-37,0.0,0.0,0.0,-2.7713319695354503e-19,1.0,<array len=36>,-5.825748986475792e-19,0.0,0.0,0.0,0.0,3.5541189577747914e-19,<array len=36>
1765492310.544539,5,352000000,odom,base_link,-1.3951669494244183e-18,6.01036753421669e-37,0.0,0.0,0.0,-2.7692254715757084e-19,1.0,<array len=36>,-9.298452498091651e-19,0.0,0.0,0.0,0.0,3.2916448578992043e-19,<array len=36>
1765492310.5658662,5,373000000,odom,base_link,-1.3940926739264735e-18,6.004454716905852e-37,0.0,0.0,0.0,-2.734779154937716e-19,1.0,<array len=36>,-9.5808992264033e-19,0.0,0.0,0.0,0.0,3.8101164815558393e-19,<array len=36>
1765492310.586759,5,394000000,odom,base_link,-1.4391162510496352e-18,6.247876354553121e-37,0.0,0.0,0.0,-2.6717578907837024e-19,1.0,<array len=36>,-1.4855033210180514e-18,0.0,0.0,0.0,0.0,2.9746766844889415e-19,<array len=36>
1765492310.6078463,5,415000000,odom,base_link,-1.4813419396962046e-18,6.469847724554526e-37,0.0,0.0,0.0,-2.585027187591567e-19,1.0,<array len=36>,-1.5109201852452422e-18,0.0,0.0,0.0,0.0,4.446916991762807e-19,<array len=36>
1765492310.6289937,5,436000000,odom,base_link,-1.538919334542303e-18,6.760674564118123e-37,0.0,0.0,0.0,-2.4660321793867983e-19,1.0,<array len=36>,-1.9646382490138797e-18,0.0,0.0,0.0,0.0,5.815234098069588e-19,<array len=36>
1765492310.650747,5,457000000,odom,base_link,-1.5656238605051316e-18,6.8923391666274516e-37,0.0,0.0,0.0,-2.4643905771376436e-19,1.0,<array len=36>,-1.6233991531496567e-18,0.0,0.0,0.0,0.0,5.8063789416774595e-19,<array len=36>
1765492310.6719947,5,478000000,odom,base_link,-1.5997146701208901e-18,7.059503822823422e-37,0.0,0.0,0.0,-2.4391203127503565e-19,1.0,<array len=36>,-1.958304725661119e-18,0.0,0.0,0.0,0.0,5.631596994044976e-19,<array len=36>
1765492310.693397,5,499000000,odom,base_link,-1.651719271423359e-18,7.310189728208676e-37,0.0,0.0,0.0,-2.3813359374036652e-19,1.0,<array len=36>,-2.024790670225949e-18,0.0,0.0,0.0,0.0,5.531846731048361e-19,<array len=36>
1765492310.7147284,5,520000000,odom,base_link,-1.7026807138753073e-18,7.547602063217983e-37,0.0,0.0,0.0,-2.277329979150098e-19,1.0,<array len=36>,-2.1079883255152723e-18,0.0,0.0,0.0,0.0,5.860899208408973e-19,<array len=36>
1765492310.7357514,5,541000000,odom,base_link,-1.7434211693584817e-18,7.7309873764699e-37,0.0,0.0,0.0,-2.223977408727652e-19,1.0,<array len=36>,-1.947636522058835e-18,0.0,0.0,0.0,0.0,4.61056706017419e-19,<array len=36>
1765492310.7566094,5,562000000,odom,base_link,-1.7957538604995803e-18,7.961181653642162e-37,0.0,0.0,0.0,-2.174693329446621e-19,1.0,<array len=36>,-2.191714285661407e-18,0.0,0.0,0.0,0.0,5.518042813162316e-19,<array len=36>
1765492310.7779932,5,583000000,odom,base_link,-1.8604514772353794e-18,8.235776318731087e-37,0.0,0.0,0.0,-2.0695845735596916e-19,1.0,<array len=36>,-2.4832076868046538e-18,0.0,0.0,0.0,0.0,7.03877598458408e-19,<array len=36>
1765492310.8033004,5,604000000,odom,base_link,-1.8467917422501552e-18,8.179577101383613e-37,0.0,0.0,0.0,-2.0446400002160308e-19,1.0,<array len=36>,-1.857833055493289e-18,0.0,0.0,0.0,0.0,6.413255946431113e-19,<array len=36>
1765492310.8239183,5,625000000,odom,base_link,-1.8701252436349535e-18,8.273385973885483e-37,0.0,0.0,0.0,-1.975711294467326e-19,1.0,<array len=36>,-1.5947098072347163e-18,0.0,0.0,0.0,0.0,5.745117803481347e-19,<array len=36>
1765492310.8459096,5,646000000,odom,base_link,-1.87724253399601e-18,8.301934560631469e-37,0.0,0.0,0.0,-2.0354481914790423e-19,1.0,<array len=36>,-1.2744891870240856e-18,0.0,0.0,0.0,0.0,3.591032709497349e-19,<array len=36>
1765492310.867008,5,667000000,odom,base_link,-1.92608559385908e-18,8.503022300329064e-37,0.0,0.0,0.0,-2.081569461823979e-19,1.0,<array len=36>,-1.2412546034238127e-18,0.0,0.0,0.0,0.0,1.7737879547169983e-19,<array len=36>
1765492310.8877983,5,688000000,odom,base_link,-1.9431643098083565e-18,8.5747293035401e-37,0.0,0.0,0.0,-2.1170484801808002e-19,1.0,<array len=36>,-7.877412625997867e-19,0.0,0.0,0.0,0.0,-9.040744118306438e-20,<array len=36>
1765492310.9091556,5,709000000,odom,base_link,-1.9490805880824043e-18,8.599990566218931e-37,0.0,0.0,0.0,-2.1527409902775275e-19,1.0,<array len=36>,-9.741794841166635e-19,0.0,0.0,0.0,0.0,-2.0590664773618493e-19,<array len=36>
1765492310.9330328,5,730000000,odom,base_link,-1.964539145041953e-18,8.666526559425349e-37,0.0,0.0,0.0,-2.1514119381314637e-19,1.0,<array len=36>,-8.99180013399992e-19,0.0,0.0,0.0,0.0,-3.3466789269359657e-19,<array len=36>
1765492310.95412,5,751000000,odom,base_link,-1.9404102401918348e-18,8.56232856339537e-37,0.0,0.0,0.0,-2.1669770097808987e-19,1.0,<array len=36>,-6.015972018649942e-19,0.0,0.0,0.0,0.0,-2.505310824797274e-19,<array len=36>
1765492310.9747813,5,772000000,odom,base_link,-1.9336393770680074e-18,8.533173621688687e-37,0.0,0.0,0.0,-2.1389646661159125e-19,1.0,<array len=36>,-7.19407924659676e-20,0.0,0.0,0.0,0.0,-1.0932419865130199e-19,<array len=36>
1765492310.9957492,5,793000000,odom,base_link,-1.9542837638284065e-18,8.620278675169283e-37,0.0,0.0,0.0,-2.0803446546958678e-19,1.0,<array len=36>,-1.0589956209570458e-19,0.0,0.0,0.0,0.0,6.99120485427292e-20,<array len=36>
1765492311.017244,5,814000000,odom,base_link,-1.9625878821063628e-18,8.655490405871085e-37,0.0,0.0,0.0,-2.1599286077014583e-19,1.0,<array len=36>,-1.2864089546626018e-19,0.0,0.0,0.0,0.0,-1.3690699855106212e-20,<array len=36>
1765492311.037833,5,835000000,odom,base_link,-1.959522738909607e-18,8.6421765980132e-37,0.0,0.0,0.0,-2.183688314332587e-19,1.0,<array len=36>,4.777529649853555e-20,0.0,0.0,0.0,0.0,-6.14788118116637e-20,<array len=36>
1765492311.0591326,5,856000000,odom,base_link,-1.9557029926652695e-18,8.625542055336178e-37,0.0,0.0,0.0,-2.1711932963716345e-19,1.0,<array len=36>,-1.4564526165175734e-19,0.0,0.0,0.0,0.0,-8.031022077592465e-21,<array len=36>
1765492311.079931,5,877000000,odom,base_link,-1.916014901739231e-18,8.453219015442298e-37,0.0,0.0,0.0,-2.1707399101163036e-19,1.0,<array len=36>,1.6785214598834885e-19,0.0,0.0,0.0,0.0,-6.052427428646007e-20,<array len=36>
1765492311.1012216,5,898000000,odom,base_link,-1.930657455682109e-18,8.517164832992057e-37,0.0,0.0,0.0,-2.19638195941668e-19,1.0,<array len=36>,2.2501245853617084e-19,0.0,0.0,0.0,0.0,-2.2102343756345326e-19,<array len=36>
1765492311.1218083,5,919000000,odom,base_link,-1.9118922284572527e-18,8.432341217658222e-37,0.0,0.0,0.0,-2.3238732081561656e-19,1.0,<array len=36>,4.828157490391478e-19,0.0,0.0,0.0,0.0,-3.1227542943753867e-19,<array len=36>
1765492311.14308,5,940000000,odom,base_link,-1.922409630446264e-18,8.481688691876877e-37,0.0,0.0,0.0,-2.3681100658702933e-19,1.0,<array len=36>,3.5345817584136934e-19,0.0,0.0,0.0,0.0,-3.5127952673848617e-19,<array len=36>
1765492311.1646185,5,961000000,odom,base_link,-1.9084472759154753e-18,8.416197305473e-37,0.0,0.0,0.0,-2.3224588678621498e-19,1.0,<array len=36>,4.500544452361443e-19,0.0,0.0,0.0,0.0,-2.881248980771695e-19,<array len=36>
1765492311.1855829,5,982000000,odom,base_link,-1.9226790010775517e-18,8.483286341211594e-37,0.0,0.0,0.0,-2.391589146314521e-19,1.0,<array len=36>,-6.346761274590436e-20,0.0,0.0,0.0,0.0,-4.2066521180612664e-19,<array len=36>
1765492311.2067192,6,3000000,odom,base_link,-1.9173774376106293e-18,8.457929522381667e-37,0.0,0.0,0.0,-2.391305369262492e-19,1.0,<array len=36>,1.2647636258552815e-19,0.0,0.0,0.0,0.0,-3.7128268542059215e-19,<array len=36>
1765492311.227946,6,24000000,odom,base_link,-1.93040398244535e-18,8.520201410201778e-37,0.0,0.0,0.0,-2.3890787318333393e-19,1.0,<array len=36>,-1.7630241893425698e-19,0.0,0.0,0.0,0.0,-1.2420099748032846e-19,<array len=36>
1765492311.249011,6,45000000,odom,base_link,-1.913583959688819e-18,8.43794872807236e-37,0.0,0.0,0.0,-2.5010860033767454e-19,1.0,<array len=36>,8.405400721376175e-20,0.0,0.0,0.0,0.0,-2.532875000122911e-19,<array len=36>
1765492311.2707207,6,66000000,odom,base_link,-1.913000854635876e-18,8.434966024516356e-37,0.0,0.0,0.0,-2.6141218668845596e-19,1.0,<array len=36>,-4.336741638476935e-20,0.0,0.0,0.0,0.0,-5.555485695664977e-19,<array len=36>
1765492311.2916095,6,87000000,odom,base_link,-1.896715495502493e-18,8.348650487915723e-37,0.0,0.0,0.0,-2.6860705263981514e-19,1.0,<array len=36>,2.4727148166722556e-19,0.0,0.0,0.0,0.0,-5.6091691444501335e-19,<array len=36>
1765492311.3129416,6,108000000,odom,base_link,-1.892216500996947e-18,8.324409975917038e-37,0.0,0.0,0.0,-2.7019138262839255e-19,1.0,<array len=36>,2.396279677493555e-19,0.0,0.0,0.0,0.0,-5.916351562313052e-19,<array len=36>
1765492311.3376284,6,129000000,odom,base_link,-1.8948011788728248e-18,8.338290823081929e-37,0.0,0.0,0.0,-2.6685221937863e-19,1.0,<array len=36>,3.3907431973834126e-19,0.0,0.0,0.0,0.0,-5.322732608627853e-19,<array len=36>
1765492311.3581264,6,150000000,odom,base_link,-1.8983240208700147e-18,8.35687940234584e-37,0.0,0.0,0.0,-2.608063948520656e-19,1.0,<array len=36>,1.4533275065528549e-19,0.0,0.0,0.0,0.0,-2.0376751455983557e-19,<array len=36>
1765492311.3793182,6,171000000,odom,base_link,-1.9165177188160734e-18,8.451257849489793e-37,0.0,0.0,0.0,-2.579361248037588e-19,1.0,<array len=36>,-3.3493944573302285e-20,0.0,0.0,0.0,0.0,6.621070256565581e-20,<array len=36>
1765492311.4005437,6,192000000,odom,base_link,-1.9140914124105573e-18,8.43877413255863e-37,0.0,0.0,0.0,-2.5657914428109195e-19,1.0,<array len=36>,-1.654849229339412e-19,0.0,0.0,0.0,0.0,2.291030163566285e-19,<array len=36>
1765492311.4215631,6,213000000,odom,base_link,-1.9025714134210564e-18,8.37960378161061e-37,0.0,0.0,0.0,-2.5705241941910402e-19,1.0,<array len=36>,-9.861821356294364e-20,0.0,0.0,0.0,0.0,2.502659658912059e-19,<array len=36>
1765492311.4421463,6,234000000,odom,base_link,-1.854960388535302e-18,8.133953250299394e-37,0.0,0.0,0.0,-2.589006227610828e-19,1.0,<array len=36>,3.7943609845260168e-19,0.0,0.0,0.0,0.0,1.514589831913705e-19,<array len=36>
1765492311.4634256,6,255000000,odom,base_link,-1.8339662888327904e-18,8.025243037551605e-37,0.0,0.0,0.0,-2.589125451681042e-19,1.0,<array len=36>,6.129307813069039e-19,0.0,0.0,0.0,0.0,3.607332731355049e-20,<array len=36>
1765492311.4843214,6,276000000,odom,base_link,-1.84202774896938e-18,8.066924952922201e-37,0.0,0.0,0.0,-2.5813913857599257e-19,1.0,<array len=36>,7.094282842542258e-19,0.0,0.0,0.0,0.0,-3.866928994929429e-21,<array len=36>
1765492311.5050547,6,297000000,odom,base_link,-1.8281995912456453e-18,7.995485275847953e-37,0.0,0.0,0.0,-2.584855521565175e-19,1.0,<array len=36>,8.180173444277386e-19,0.0,0.0,0.0,0.0,-3.63125309604876e-20,<array len=36>
1765492311.5264852,6,318000000,odom,base_link,-1.8359134811938395e-18,8.035033276409644e-37,0.0,0.0,0.0,-2.5420001669774455e-19,1.0,<array len=36>,6.348374497830253e-19,0.0,0.0,0.0,0.0,5.433148040684726e-20,<array len=36>
1765492311.547598,6,339000000,odom,base_link,-1.8664248643677434e-18,8.191584342346833e-37,0.0,0.0,0.0,-2.5889067160341742e-19,1.0,<array len=36>,-1.0918548411847665e-19,0.0,0.0,0.0,0.0,1.8954586029698183e-22,<array len=36>
1765492311.567887,6,360000000,odom,base_link,-1.890776478279332e-18,8.319031313623203e-37,0.0,0.0,0.0,-2.6447082607423347e-19,1.0,<array len=36>,-5.410494233003862e-19,0.0,0.0,0.0,0.0,-1.058720172596027e-19,<array len=36>
1765492311.5890353,6,381000000,odom,base_link,-1.8850053452040267e-18,8.288366700745872e-37,0.0,0.0,0.0,-2.668739285380706e-19,1.0,<array len=36>,-4.0931044032995633e-19,0.0,0.0,0.0,0.0,-1.6637695165862674e-19,<array len=36>
1765492311.6102066,6,402000000,odom,base_link,-1.887731838648826e-18,8.302839766075384e-37,0.0,0.0,0.0,-2.6395681147772293e-19,1.0,<array len=36>,-5.6697378479218835e-19,0.0,0.0,0.0,0.0,-1.0421446326105287e-19,<array len=36>
1765492311.631505,6,423000000,odom,base_link,-1.9041332435600794e-18,8.388247123708157e-37,0.0,0.0,0.0,-2.5677515078345773e-19,1.0,<array len=36>,-6.497120225356123e-19,0.0,0.0,0.0,0.0,-4.9050173061200406e-20,<array len=36>
1765492311.6534455,6,444000000,odom,base_link,-1.9297638314108367e-18,8.520455804869029e-37,0.0,0.0,0.0,-2.590486841231057e-19,1.0,<array len=36>,-6.032282575532741e-19,0.0,0.0,0.0,0.0,-3.00976227977694e-21,<array len=36>
1765492311.6732337,6,465000000,odom,base_link,-1.9191203587459108e-18,8.46608129406217e-37,0.0,0.0,0.0,-2.5182321378707417e-19,1.0,<array len=36>,-2.6994171872932515e-19,0.0,0.0,0.0,0.0,2.4090690070779695e-19,<array len=36>
1765492311.6942313,6,486000000,odom,base_link,-1.9502991846218254e-18,8.622409744742477e-37,0.0,0.0,0.0,-2.4956978703489895e-19,1.0,<array len=36>,-6.218460896933277e-19,0.0,0.0,0.0,0.0,3.2960269529850895e-19,<array len=36>
1765492311.7169049,6,507000000,odom,base_link,-1.947699063723521e-18,8.609302829347615e-37,0.0,0.0,0.0,-2.5451890374138105e-19,1.0,<array len=36>,-5.711164292828149e-19,0.0,0.0,0.0,0.0,1.797696711684179e-19,<array len=36>
1765492311.7376595,6,528000000,odom,base_link,-1.965781633957721e-18,8.700601976512671e-37,0.0,0.0,0.0,-2.5038247909621836e-19,1.0,<array len=36>,-5.871275275965925e-19,0.0,0.0,0.0,0.0,1.2176517499503581e-19,<array len=36>
1765492311.7584515,6,549000000,odom,base_link,-1.9708930917735112e-18,8.726007246119987e-37,0.0,0.0,0.0,-2.466434286367108e-19,1.0,<array len=36>,-3.9170724154928256e-19,0.0,0.0,0.0,0.0,2.362905806932334e-19,<array len=36>
1765492311.7803178,6,570000000,odom,base_link,-1.9564208183264117e-18,8.65420273653623e-37,0.0,0.0,0.0,-2.495088161797096e-19,1.0,<array len=36>,-3.552424721952466e-19,0.0,0.0,0.0,0.0,4.408376394979815e-20,<array len=36>
1765492311.801218,6,591000000,odom,base_link,-1.9591648175817825e-18,8.66784505586226e-37,0.0,0.0,0.0,-2.4766039038355945e-19,1.0,<array len=36>,-8.443459961863792e-20,0.0,0.0,0.0,0.0,3.6369460025510975e-20,<array len=36>
1765492311.8218982,6,612000000,odom,base_link,-1.9578237045337838e-18,8.66128457549698e-37,0.0,0.0,0.0,-2.415213661484533e-19,1.0,<array len=36>,-9.642515057392673e-20,0.0,0.0,0.0,0.0,2.4757214462719257e-19,<array len=36>
1765492311.8433478,6,633000000,odom,base_link,-1.9902674002846014e-18,8.81898543827296e-37,0.0,0.0,0.0,-2.445541536911911e-19,1.0,<array len=36>,-2.3319777454171412e-19,0.0,0.0,0.0,0.0,1.1101572200051644e-19,<array len=36>
1765492311.864277,6,654000000,odom,base_link,-1.9977369252007527e-18,8.855516474333122e-37,0.0,0.0,0.0,-2.445135777942686e-19,1.0,<array len=36>,-2.5565555644991857e-19,0.0,0.0,0.0,0.0,4.0568587475089945e-20,<array len=36>
1765492311.890922,6,675000000,odom,base_link,-2.0055760515800124e-18,8.893987087685299e-37,0.0,0.0,0.0,-2.4623770609826923e-19,1.0,<array len=36>,-4.681450786057236e-19,0.0,0.0,0.0,0.0,6.230685869410263e-20,<array len=36>
1765492311.9117825,6,696000000,odom,base_link,-2.0102636504358132e-18,8.91708187184371e-37,0.0,0.0,0.0,-2.4644063240399197e-19,1.0,<array len=36>,-4.866555509907718e-19,0.0,0.0,0.0,0.0,2.323348532509472e-20,<array len=36>
1765492311.9332232,6,717000000,odom,base_link,-2.0137837859402092e-18,8.934470326606209e-37,0.0,0.0,0.0,-2.4753054401189345e-19,1.0,<array len=36>,-5.329531562516757e-19,0.0,0.0,0.0,0.0,-1.1446053073219386e-19,<array len=36>
1765492311.954417,6,738000000,odom,base_link,-2.006407897893771e-18,8.897370907738292e-37,0.0,0.0,0.0,-2.5545185803028046e-19,1.0,<array len=36>,-1.5371902484923929e-19,0.0,0.0,0.0,0.0,-2.0757532074455381e-19,<array len=36>
1765492311.975665,6,759000000,odom,base_link,-2.022034308735964e-18,8.978445675154487e-37,0.0,0.0,0.0,-2.6337980609877255e-19,1.0,<array len=36>,-2.314036527163066e-19,0.0,0.0,0.0,0.0,-3.5935672960959517e-19,<array len=36>
1765492311.9968154,6,780000000,odom,base_link,-2.0553969120942717e-18,9.156215696109816e-37,0.0,0.0,0.0,-2.6946236765521864e-19,1.0,<array len=36>,-4.744843858500983e-19,0.0,0.0,0.0,0.0,-4.423745058466519e-19,<array len=36>
1765492312.018085,6,801000000,odom,base_link,-2.053688030091495e-18,9.147056700941627e-37,0.0,0.0,0.0,-2.6650179799861315e-19,1.0,<array len=36>,-4.135655205303126e-19,0.0,0.0,0.0,0.0,-3.8211743989754236e-19,<array len=36>
1765492312.0393567,6,822000000,odom,base_link,-2.0431272086586054e-18,9.091454719769878e-37,0.0,0.0,0.0,-2.5999116019674795e-19,1.0,<array len=36>,-2.794611687466418e-19,0.0,0.0,0.0,0.0,-2.373450701877002e-19,<array len=36>
1765492312.0600379,6,843000000,odom,base_link,-2.022551474070062e-18,8.985190735463763e-37,0.0,0.0,0.0,-2.5646177055442063e-19,1.0,<array len=36>,-1.5374834453611187e-19,0.0,0.0,0.0,0.0,-1.9236429031241673e-20,<array len=36>
1765492312.0816386,6,864000000,odom,base_link,-2.0435651997842437e-18,9.090895894761767e-37,0.0,0.0,0.0,-2.4656734829748456e-19,1.0,<array len=36>,-2.0505610522171534e-19,0.0,0.0,0.0,0.0,3.202372914531059e-19,<array len=36>
1765492312.1028557,6,885000000,odom,base_link,-2.054550441518454e-18,9.144092099723354e-37,0.0,0.0,0.0,-2.376842161985804e-19,1.0,<array len=36>,8.06162453159648e-21,0.0,0.0,0.0,0.0,6.052981229835882e-19,<array len=36>
1765492312.1236236,6,906000000,odom,base_link,-2.049099993007423e-18,9.118359654671237e-37,0.0,0.0,0.0,-2.3443188580727997e-19,1.0,<array len=36>,4.369559127687949e-20,0.0,0.0,0.0,0.0,6.108554703111107e-19,<array len=36>
1765492312.1452334,6,927000000,odom,base_link,-2.0516320005842568e-18,9.130179437736212e-37,0.0,0.0,0.0,-2.32382794098015e-19,1.0,<array len=36>,-8.09980183395317e-20,0.0,0.0,0.0,0.0,5.25873639975868e-19,<array len=36>
1765492312.1667838,6,948000000,odom,base_link,-2.0554009276561665e-18,9.14772167247542e-37,0.0,0.0,0.0,-2.330609357621944e-19,1.0,<array len=36>,-3.128519389152789e-19,0.0,0.0,0.0,0.0,4.45730186518597e-19,<array len=36>
1765492312.1875918,6,969000000,odom,base_link,-2.0410944899842663e-18,9.079958885320652e-37,0.0,0.0,0.0,-2.405914765910437e-19,1.0,<array len=36>,2.353056952359986e-20,0.0,0.0,0.0,0.0,1.1382612774173124e-19,<array len=36>
1765492312.208388,6,990000000,odom,base_link,-2.0187023838462793e-18,8.971533578949532e-37,0.0,0.0,0.0,-2.436207082877362e-19,1.0,<array len=36>,3.414100730683335e-19,0.0,0.0,0.0,0.0,-1.1307603979344367e-19,<array len=36>
1765492312.2299173,7,11000000,odom,base_link,-2.0290798494967285e-18,9.021631958168636e-37,0.0,0.0,0.0,-2.3914050631513653e-19,1.0,<array len=36>,1.9066803343518728e-19,0.0,0.0,0.0,0.0,-8.968800967345761e-20,<array len=36>
1765492312.2516205,7,32000000,odom,base_link,-2.0297994731759166e-18,9.025050049742314e-37,0.0,0.0,0.0,-2.358426928944935e-19,1.0,<array len=36>,2.079288324603829e-19,0.0,0.0,0.0,0.0,-6.590283421863801e-20,<array len=36>
1765492312.272737,7,53000000,odom,base_link,-2.0317139048595506e-18,9.033970167809093e-37,0.0,0.0,0.0,-2.300980948095687e-19,1.0,<array len=36>,2.2559069330110745e-19,0.0,0.0,0.0,0.0,5.643506576429946e-20,<array len=36>
1765492312.2938142,7,74000000,odom,base_link,-2.0312613411526027e-18,9.031916710501343e-37,0.0,0.0,0.0,-2.2364074377285007e-19,1.0,<array len=36>,9.364903649203232e-20,0.0,0.0,0.0,0.0,3.228711012989284e-19,<array len=36>
1765492312.315334,7,95000000,odom,base_link,-2.0435759866023067e-18,9.086809120277156e-37,0.0,0.0,0.0,-2.2210826296880484e-19,1.0,<array len=36>,-2.3689145481931084e-19,0.0,0.0,0.0,0.0,4.097608632177423e-19,<array len=36>
1765492312.3360174,7,116000000,odom,base_link,-2.059800613779538e-18,9.159532574989321e-37,0.0,0.0,0.0,-2.2612055559056534e-19,1.0,<array len=36>,-2.9257870745533037e-19,0.0,0.0,0.0,0.0,2.479990614204046e-19,<array len=36>
1765492312.3570712,7,137000000,odom,base_link,-2.0496669757212332e-18,9.114392472117832e-37,0.0,0.0,0.0,-2.193275905912139e-19,1.0,<array len=36>,-1.8921430995539866e-19,0.0,0.0,0.0,0.0,3.1457337720532734e-19,<array len=36>
1765492312.3788283,7,158000000,odom,base_link,-2.067709227780008e-18,9.193518368770904e-37,0.0,0.0,0.0,-2.1923127886316676e-19,1.0,<array len=36>,-3.428125992424499e-19,0.0,0.0,0.0,0.0,2.0698697040765632e-19,<array len=36>
1765492312.4034977,7,179000000,odom,base_link,-2.048578097872765e-18,9.11154221283516e-37,0.0,0.0,0.0,-2.0926487548424196e-19,1.0,<array len=36>,-1.6492149257296845e-19,0.0,0.0,0.0,0.0,2.7382606264015515e-19,<array len=36>
1765492312.420827,7,200000000,odom,base_link,-2.0761086096330164e-18,9.223637625061533e-37,0.0,0.0,0.0,-1.979030449763413e-19,1.0,<array len=36>,-3.0983450505437077e-19,0.0,0.0,0.0,0.0,4.610517712850209e-19,<array len=36>
1765492312.4423928,7,221000000,odom,base_link,-2.0749606468514774e-18,9.219172297088808e-37,0.0,0.0,0.0,-1.910754170899489e-19,1.0,<array len=36>,-1.443812673517952e-19,0.0,0.0,0.0,0.0,6.675264476307915e-19,<array len=36>
1765492312.464028,7,242000000,odom,base_link,-2.053740483194475e-18,9.138155656187423e-37,0.0,0.0,0.0,-1.90715422089795e-19,1.0,<array len=36>,-3.879530926896137e-20,0.0,0.0,0.0,0.0,5.449936857413145e-19,<array len=36>
1765492312.4851258,7,263000000,odom,base_link,-2.0484099821484586e-18,9.118095862233263e-37,0.0,0.0,0.0,-1.8560556126597953e-19,1.0,<array len=36>,1.8380233934809416e-19,0.0,0.0,0.0,0.0,6.404898589940455e-19,<array len=36>
1765492312.5063283,7,284000000,odom,base_link,-2.029342979737876e-18,9.047305736780581e-37,0.0,0.0,0.0,-1.8566478279917838e-19,1.0,<array len=36>,1.8319160128466268e-19,0.0,0.0,0.0,0.0,4.495255749535941e-19,<array len=36>
1765492312.5275962,7,305000000,odom,base_link,-2.0369978176154344e-18,9.075632265160707e-37,0.0,0.0,0.0,-1.8438261511072656e-19,1.0,<array len=36>,3.72483733500788e-19,0.0,0.0,0.0,0.0,2.575319974402822e-19,<array len=36>
1765492312.5489218,7,326000000,odom,base_link,-2.0333842960028265e-18,9.062124218945127e-37,0.0,0.0,0.0,-1.8943682375599834e-19,1.0,<array len=36>,3.9596524617763502e-19,0.0,0.0,0.0,0.0,3.121130159905887e-20,<array len=36>
1765492312.5699859,7,347000000,odom,base_link,-2.0081357772949332e-18,8.966202184095784e-37,0.0,0.0,0.0,-1.9047471069515297e-19,1.0,<array len=36>,4.343305323765902e-19,0.0,0.0,0.0,0.0,4.584978945563883e-21,<array len=36>
1765492312.5907767,7,368000000,odom,base_link,-2.0117796385499985e-18,8.980066320299738e-37,0.0,0.0,0.0,-1.9000454560698472e-19,1.0,<array len=36>,3.4886041522342684e-19,0.0,0.0,0.0,0.0,-8.379017792390742e-20,<array len=36>
1765492312.6125998,7,389000000,odom,base_link,-2.0018180834213918e-18,8.942077323961339e-37,0.0,0.0,0.0,-1.9135153632951188e-19,1.0,<array len=36>,2.621418696807969e-19,0.0,0.0,0.0,0.0,-1.083191148634947e-19,<array len=36>
1765492312.6337829,7,410000000,odom,base_link,-1.989634140607004e-18,8.89483891616123e-37,0.0,0.0,0.0,-1.9635881753332963e-19,1.0,<array len=36>,4.510826381755204e-19,0.0,0.0,0.0,0.0,-2.281181413829154e-19,<array len=36>
1765492312.6555436,7,431000000,odom,base_link,-1.9963976047643745e-18,8.921490126290242e-37,0.0,0.0,0.0,-1.9768792403132082e-19,1.0,<array len=36>,3.522542022709609e-19,0.0,0.0,0.0,0.0,-1.57163814768047e-19,<array len=36>
1765492312.6761508,7,452000000,odom,base_link,-1.998763595708894e-18,8.931047063958188e-37,0.0,0.0,0.0,-2.0624167215266234e-19,1.0,<array len=36>,8.925887224799022e-20,0.0,0.0,0.0,0.0,-3.0032307538113255e-19,<array len=36>
1765492312.6975615,7,473000000,odom,base_link,-2.0091696241012075e-18,8.974284517451626e-37,0.0,0.0,0.0,-2.0926222485163774e-19,1.0,<array len=36>,2.4857280464672412e-20,0.0,0.0,0.0,0.0,-3.668129379933927e-19,<array len=36>
1765492312.7181182,7,494000000,odom,base_link,-2.0418552306217846e-18,9.113492435552478e-37,0.0,0.0,0.0,-2.1663753017727297e-19,1.0,<array len=36>,-3.8130616381327025e-19,0.0,0.0,0.0,0.0,-4.816379780525945e-19,<array len=36>
1765492312.7396522,7,515000000,odom,base_link,-2.074725782341679e-18,9.255314491238378e-37,0.0,0.0,0.0,-2.1481873771391978e-19,1.0,<array len=36>,-8.103965879492912e-19,0.0,0.0,0.0,0.0,-3.5161752724933793e-19,<array len=36>
1765492312.76091,7,536000000,odom,base_link,-2.0490311137569707e-18,9.143637463189198e-37,0.0,0.0,0.0,-2.19812390844953e-19,1.0,<array len=36>,-5.012715142152063e-19,0.0,0.0,0.0,0.0,-4.2141841549775794e-19,<array len=36>
