Timestamp,header_stamp_sec,header_stamp_nanosec,header_frame_id,child_frame_id,pose_pose_position_x,pose_pose_position_y,pose_pose_position_z,pose_pose_orientation_x,pose_pose_orientation_y,pose_pose_orientation_z,pose_pose_orientation_w,pose_covariance,twist_twist_linear_x,twist_twist_linear_y,twist_twist_linear_z,twist_twist_angular_x,twist_twist_angular_y,twist_twist_angular_z,twist_covariance
1765492307.0307827,1,908000000,odom,base_link,0.0,0.0,0.0,0.0,0.0,0.0,1.0,<array len=36>,0.0,0.0,0.0,0.0,0.0,0.0,<array len=36>
1765492307.049289,1,929000000,odom,base_link,0.0,0.0,0.0,0.0,0.0,0.0,1.0,<array len=36>,0.0,0.0,0.0,0.0,0.0,0.0,<array len=36>
1765492307.0895298,1,950000000,odom,base_link,0.0,0.0,0.0,0.0,0.0,0.0,1.0,<array len=36>,0.0,0.0,0.0,0.0,0.0,0.0,<array len=36>
1765492307.1148994,1,971000000,odom,base_link,0.0,0.0,0.0,0.0,0.0,0.0,1.0,<array len=36>,0.0,0.0,0.0,0.0,0.0,0.0,<array len=36>
1765492307.1286213,1,992000000,odom,base_link,0.0,0.0,0.0,0.0,0.0,0.0,1.0,<array len=36>,0.0,0.0,0.0,0.0,0.0,0.0,<array len=36>
1765492307.1500669,2,13000000,odom,base_link,0.0,0.0,0.0,0.0,0.0,0.0,1.0,<array len=36>,0.0,0.0,0.0,0.0,0.0,0.0,<array len=36>
1765492307.171435,2,34000000,odom,base_link,0.0,0.0,0.0,0.0,0.0,0.0,1.0,<array len=36>,0.0,0.0,0.0,0.0,0.0,0.0,<array len=36>
1765492307.1891446,2,55000000,odom,base_link,0.0,0.0,0.0,0.0,0.0,0.0,1.0,<array len=36>,0.0,0.0,0.0,0.0,0.0,0.0,<array len=36>
1765492307.2127552,2,76000000,odom,base_link,-7.644662915191884e-20,1.8494554723061092e-38,0.0,0.0,0.0,0.0,1.0,<array len=36>,-5.7055649043033705e-19,7.104733510578236e-41,0.0,0.0,0.0,-8.245479605100804e-19,<array len=36>
1765492307.2398474,2,94000000,odom,base_link,-1.0552526490047286e-19,2.4610000902477726e-38,0.0,0.0,0.0,0.0,1.0,<array len=36>,-8.300863836793002e-19,5.962624059248735e-41,0.0,0.0,0.0,-1.5022948776757263e-18,<array len=36>
1765492307.2671676,2,115000000,odom,base_link,-1.0664883748830517e-19,2.1205520044007904e-38,0.0,0.0,0.0,0.0,1.0,<array len=36>,-8.73611352539179e-19,1.6190209209951778e-41,0.0,0.0,0.0,-2.047689174472898e-18,<array len=36>
1765492307.2865365,2,139000000,odom,base_link,-1.0859213299481762e-19,2.0338837452782383e-38,0.0,0.0,0.0,0.0,1.0,<array len=36>,-9.02659039513904e-19,3.887471603050621e-42,0.0,0.0,0.0,-2.5201887934285955e-18,<array len=36>
1765492307.3041768,2,160000000,odom,base_link,-1.136394816308049e-19,2.2227149103089498e-38,0.0,0.0,0.0,0.0,1.0,<array len=36>,-9.509105130186468e-19,8.755556983163078e-42,0.0,0.0,0.0,-2.9162530149793726e-18,<array len=36>
1765492307.325153,2,181000000,odom,base_link,-1.0770686021421567e-19,2.0244495266541616e-38,0.0,0.0,0.0,0.0,1.0,<array len=36>,-3.6203806293714477e-19,-2.6343181966365023e-42,0.0,0.0,0.0,-2.3648136517210935e-18,<array len=36>
1765492307.3461223,2,202000000,odom,base_link,-1.0154338386416053e-19,1.9149257094443545e-38,0.0,0.0,0.0,0.0,1.0,<array len=36>,-7.814608096320844e-20,-5.238008803515909e-42,0.0,0.0,0.0,-1.941754536563557e-18,<array len=36>
1765492307.3656313,2,223000000,odom,base_link,-1.017387027772466e-19,2.0546506540242126e-38,0.0,0.0,0.0,0.0,1.0,<array len=36>,-5.922598324259151e-20,2.855622695349362e-42,0.0,0.0,0.0,-1.6552578912101209e-18,<array len=36>
1765492307.3864725,2,244000000,odom,base_link,-9.03508405042754e-20,1.5335825459951456e-38,0.0,0.0,0.0,0.0,1.0,<array len=36>,4.104276983761651e-20,-1.866548238110089e-41,0.0,0.0,0.0,-1.4190804762523386e-18,<array len=36>
1765492307.4074743,2,265000000,odom,base_link,-1.0925670213860132e-19,2.535715523445115e-38,0.0,0.0,0.0,0.0,1.0,<array len=36>,-5.349932513557071e-20,2.9426858443992046e-41,0.0,0.0,0.0,-1.195257253592576e-18,<array len=36>
1765492307.4254282,2,286000000,odom,base_link,-1.2389277508706316e-19,3.2425422983148495e-38,0.0,0.0,0.0,0.0,1.0,<array len=36>,-1.9167892069993537e-19,4.1784336793264074e-41,0.0,0.0,0.0,-9.680898596042227e-19,<array len=36>
1765492307.4466379,2,307000000,odom,base_link,-1.2545448391376308e-19,3.2890287758915873e-38,0.0,0.0,0.0,0.0,1.0,<array len=36>,-2.3073455093282193e-19,2.2485073241617265e-41,0.0,0.0,0.0,-7.234074272937741e-19,<array len=36>
1765492307.467558,2,328000000,odom,base_link,-1.261782312375479e-19,3.308567662872931e-38,0.0,0.0,0.0,0.0,1.0,<array len=36>,-2.2350044986754165e-19,1.1990994174105269e-41,0.0,0.0,0.0,-4.490094535396461e-19,<array len=36>
1765492307.4857605,2,349000000,odom,base_link,-1.3086987427646802e-19,3.308593079732367e-38,0.0,0.0,0.0,0.0,1.0,<array len=36>,-2.2332269669627927e-19,1.2215538621792665e-41,0.0,0.0,0.0,-4.490094535396461e-19,<array len=36>
1765492307.5278919,2,370000000,odom,base_link,-1.6123510305983145e-19,4.76050685120919e-38,0.0,0.0,0.0,0.0,1.0,<array len=36>,-4.3215270251451305e-19,4.854071784497593e-41,0.0,0.0,0.0,-3.5926794248278366e-20,<array len=36>
1765492307.5465264,2,391000000,odom,base_link,-1.465414950833597e-19,4.1486966618023365e-38,0.0,0.0,0.0,0.0,1.0,<array len=36>,-2.2663214968042595e-19,4.9961778770509945e-43,0.0,0.0,0.0,7.898213329626548e-20,<array len=36>
1765492307.5670505,2,412000000,odom,base_link,-1.5187859906422458e-19,4.4078790867176053e-38,0.0,0.0,0.0,0.0,1.0,<array len=36>,-2.487155481932778e-19,1.0432812078613294e-41,0.0,0.0,0.0,1.3689064471664263e-19,<array len=36>
1765492307.588011,2,433000000,odom,base_link,-1.396110846933661e-19,3.9012223925080963e-38,0.0,0.0,0.0,0.0,1.0,<array len=36>,-1.515569680112308e-19,-1.4304365243887447e-41,0.0,0.0,0.0,1.1502528216096686e-19,<array len=36>
1765492307.6059327,2,454000000,odom,base_link,-1.3067706930376014e-19,3.5696516347545333e-38,0.0,0.0,0.0,0.0,1.0,<array len=36>,1.6588058698690884e-20,-1.974637165351292e-41,0.0,0.0,0.0,1.0060867892774113e-19,<array len=36>
1765492307.6307907,2,475000000,odom,base_link,-1.3658541816705335e-19,3.896245966992743e-38,0.0,0.0,0.0,0.0,1.0,<array len=36>,1.4305326514009355e-19,3.0168410562189643e-42,0.0,0.0,0.0,8.36332176114604e-20,<array len=36>
1765492307.6527386,2,496000000,odom,base_link,-1.4197339545766567e-19,4.145524190908097e-38,0.0,0.0,0.0,0.0,1.0,<array len=36>,1.2271633142323898e-20,1.1258178293120866e-41,0.0,0.0,0.0,7.270539158368372e-20,<array len=36>
1765492307.6706111,2,517000000,odom,base_link,-1.495652035863754e-19,4.454462492521251e-38,0.0,0.0,0.0,0.0,1.0,<array len=36>,-3.5146616303183566e-21,1.7647367038615392e-41,0.0,0.0,0.0,7.561860941893863e-20,<array len=36>
1765492307.6918468,2,538000000,odom,base_link,-1.530063429419627e-19,4.5701843727816355e-38,0.0,0.0,0.0,0.0,1.0,<array len=36>,-1.1894261520309158e-19,1.3338983721092253e-41,0.0,0.0,0.0,1.0686665542474235e-19,<array len=36>
1765492307.7131376,2,559000000,odom,base_link,-1.500745134181784e-19,4.416528032739026e-38,0.0,0.0,0.0,0.0,1.0,<array len=36>,-1.63780833682534e-19,7.969568630784384e-43,0.0,0.0,0.0,1.3426117516054682e-19,<array len=36>
1765492307.731285,2,580000000,odom,base_link,-1.3188223737171996e-19,3.690991531829343e-38,0.0,0.0,0.0,0.0,1.0,<array len=36>,2.1635146844227185e-20,-2.7562832998669843e-41,0.0,0.0,0.0,1.5385372372979118e-19,<array len=36>
1765492307.752075,2,601000000,odom,base_link,-1.1794494437623587e-19,3.183483712689713e-38,0.0,0.0,0.0,0.0,1.0,<array len=36>,1.8083810949770838e-19,-3.315454946565306e-41,0.0,0.0,0.0,1.6730231876784545e-19,<array len=36>
1765492307.7732086,2,622000000,odom,base_link,-1.0528503308719999e-19,2.7450386809615454e-38,0.0,0.0,0.0,0.0,1.0,<array len=36>,3.466668337597562e-19,-3.329208858954193e-41,0.0,0.0,0.0,1.649427262224701e-19,<array len=36>
1765492307.7913628,2,643000000,odom,base_link,-9.200423065083993e-20,2.2799017815939803e-38,0.0,0.0,0.0,0.0,1.0,<array len=36>,4.855882169898529e-19,-3.444240025695587e-41,0.0,0.0,0.0,1.3969992356715833e-19,<array len=36>
1765492307.812499,2,664000000,odom,base_link,-9.484768637328741e-20,2.441878374580996e-38,0.0,0.0,0.0,0.0,1.0,<array len=36>,4.538950585682088e-19,-1.0706008181702619e-41,0.0,0.0,0.0,9.307777079663243e-20,<array len=36>
1765492307.8339658,2,685000000,odom,base_link,-1.1834996931859456e-19,3.345041791713824e-38,0.0,0.0,0.0,0.0,1.0,<array len=36>,1.4891149712519e-19,2.9727466695756494e-41,0.0,0.0,0.0,1.156529374302587e-19,<array len=36>
1765492307.8519528,2,706000000,odom,base_link,-1.4388810159999088e-19,4.227450803423704e-38,0.0,0.0,0.0,0.0,1.0,<array len=36>,-1.5781078583622444e-19,4.894613429426861e-41,0.0,0.0,0.0,1.507534440485882e-19,<array len=36>
1765492307.8732584,2,727000000,odom,base_link,-1.7781504190208978e-19,5.338876467673501e-38,0.0,0.0,0.0,0.0,1.0,<array len=36>,-5.252221560055384e-19,6.745085590407384e-41,0.0,0.0,0.0,2.1654169139610252e-19,<array len=36>
1765492307.894416,2,748000000,odom,base_link,-2.125194785975492e-19,6.405165555449238e-38,0.0,0.0,0.0,0.0,1.0,<array len=36>,-9.113887258023813e-19,7.502707259890371e-41,0.0,0.0,0.0,3.1657916614987068e-19,<array len=36>
1765492307.9126482,2,769000000,odom,base_link,-2.3170769430001783e-19,6.405324648242899e-38,0.0,0.0,0.0,0.0,1.0,<array len=36>,-9.16060388718441e-19,7.648987374567158e-41,0.0,0.0,0.0,3.1657916614987068e-19,<array len=36>
1765492307.9551218,2,790000000,odom,base_link,-2.559831788220647e-19,7.687313692819265e-38,0.0,0.0,0.0,0.0,1.0,<array len=36>,-1.1206165714743691e-18,5.27065376776671e-41,0.0,0.0,0.0,4.2628322022702587e-19,<array len=36>
1765492307.9731288,2,811000000,odom,base_link,-2.493863122234038e-19,7.47919564223097e-38,0.0,0.0,0.0,0.0,1.0,<array len=36>,-9.12490460104936e-19,1.8455507055620427e-41,0.0,0.0,0.0,4.0683785036274637e-19,<array len=36>
1765492307.9944239,2,832000000,odom,base_link,-2.3446594234876933e-19,7.05599327678859e-38,0.0,0.0,0.0,0.0,1.0,<array len=36>,-5.6251982463609785e-19,-6.863024573284873e-42,0.0,0.0,0.0,3.4113259260405982e-19,<array len=36>
1765492308.0157018,2,853000000,odom,base_link,-2.2242335316169972e-19,6.768672875998303e-38,0.0,0.0,0.0,0.0,1.0,<array len=36>,-2.1319638878307917e-19,-1.4088977706684047e-41,0.0,0.0,0.0,2.5284147423038575e-19,<array len=36>
1765492308.0340488,2,874000000,odom,base_link,-2.005098171599252e-19,6.165604475597984e-38,0.0,0.0,0.0,0.0,1.0,<array len=36>,1.6981988775157362e-19,-2.9926034439136915e-41,0.0,0.0,0.0,2.1058162675666003e-19,<array len=36>
1765492308.0550902,2,895000000,odom,base_link,-2.0180794980365425e-19,6.309522027832516e-38,0.0,0.0,0.0,0.0,1.0,<array len=36>,3.0572108353932148e-19,-8.710236449343401e-42,0.0,0.0,0.0,1.9434187741272797e-19,<array len=36>
1765492308.076167,2,916000000,odom,base_link,-2.0969422240087587e-19,6.599174419171001e-38,0.0,0.0,0.0,0.0,1.0,<array len=36>,2.2611257819509417e-19,7.420961991955079e-42,0.0,0.0,0.0,1.972725364488854e-19,<array len=36>
1765492308.0941918,2,937000000,odom,base_link,-2.264582325782111e-19,7.101296941998297e-38,0.0,0.0,0.0,0.0,1.0,<array len=36>,1.0374169837987643e-20,2.3677624287561694e-41,0.0,0.0,0.0,2.1684717563984207e-19,<array len=36>
1765492308.1159728,2,958000000,odom,base_link,-2.3935352769609434e-19,7.448509704681049e-38,0.0,0.0,0.0,0.0,1.0,<array len=36>,-1.6468505613285078e-19,2.572811344283083e-41,0.0,0.0,0.0,2.4539063810608064e-19,<array len=36>
1765492308.1419952,2,979000000,odom,base_link,-2.540637449374383e-19,7.82992033139045e-38,0.0,0.0,0.0,0.0,1.0,<array len=36>,-4.2681075390148264e-19,2.813305964528136e-41,0.0,0.0,0.0,2.390669054940776e-19,<array len=36>
1765492308.1600544,3,0,odom,base_link,-2.6694414139123065e-19,8.169434880596292e-38,0.0,0.0,0.0,0.0,1.0,<array len=36>,-5.1562653550867135e-19,2.771665774173965e-41,0.0,0.0,0.0,1.8074762751571076e-19,<array len=36>
1765492308.1815696,3,21000000,odom,base_link,-2.6992193761225763e-19,8.230478920041282e-38,0.0,0.0,0.0,0.0,1.0,<array len=36>,-4.860676703758318e-19,1.6673644969840413e-41,0.0,0.0,0.0,9.418341086448798e-20,<array len=36>
1765492308.2025762,3,42000000,odom,base_link,-2.6808934880322667e-19,8.175728072901056e-38,0.0,0.0,0.0,0.0,1.0,<array len=36>,-3.564553196761824e-19,6.735172373599547e-42,0.0,0.0,0.0,1.505377144424753e-20,<array len=36>
1765492308.2215908,3,63000000,odom,base_link,-2.598782979965873e-19,7.928074380946968e-38,0.0,0.0,0.0,0.0,1.0,<array len=36>,-2.02908363506504e-19,-5.69566758205959e-42,0.0,0.0,0.0,-8.173808320042344e-20,<array len=36>
1765492308.2427678,3,84000000,odom,base_link,-2.683540645265462e-19,8.286104843988311e-38,0.0,0.0,0.0,0.0,1.0,<array len=36>,-1.5950196710164536e-19,1.1806714384490366e-41,0.0,0.0,0.0,-1.7780553219883493e-19,<array len=36>
1765492308.2645366,3,105000000,odom,base_link,-2.770912080998487e-19,8.633224938108224e-38,0.0,0.0,0.0,0.0,1.0,<array len=36>,-1.3551867915226766e-19,2.0083172499173229e-41,0.0,0.0,0.0,-2.0125330940041854e-19,<array len=36>
1765492308.2832954,3,126000000,odom,base_link,-2.808971690994465e-19,8.783473615910483e-38,0.0,0.0,0.0,0.0,1.0,<array len=36>,-1.4350647769058345e-19,1.6536342658661563e-41,0.0,0.0,0.0,-1.8384472739064554e-19,<array len=36>
1765492308.3048406,3,147000000,odom,base_link,-2.914997782568418e-19,9.141916349952034e-38,0.0,0.0,0.0,0.0,1.0,<array len=36>,-2.3286112460271935e-19,2.2956566155937098e-41,0.0,0.0,0.0,-1.2938208087642974e-19,<array len=36>
1765492308.326843,3,168000000,odom,base_link,-3.148443084414517e-19,9.879359438369653e-38,0.0,0.0,0.0,0.0,1.0,<array len=36>,-4.668142591977625e-19,4.1005290453163565e-41,0.0,0.0,0.0,-5.672237285834091e-20,<array len=36>
1765492308.343741,3,189000000,odom,base_link,-3.2466922495060204e-19,9.879448112829861e-38,0.0,0.0,0.0,0.0,1.0,<array len=36>,-4.688920750070293e-19,4.3446576412162287e-41,0.0,0.0,0.0,-5.672237285834091e-20,<array len=36>
1765492308.3864262,3,210000000,odom,base_link,-3.535821860994146e-19,1.1058411697788758e-37,0.0,0.0,0.0,0.0,1.0,<array len=36>,-6.555501321185467e-19,4.0181887771330045e-41,0.0,0.0,0.0,6.001907357387137e-20,<array len=36>
1765492308.4045675,3,231000000,odom,base_link,-3.596011999009577e-19,1.1236394179054055e-37,0.0,0.0,0.0,0.0,1.0,<array len=36>,-6.795613327857496e-19,2.7986928491169164e-41,0.0,0.0,0.0,8.606200696747462e-20,<array len=36>
1765492308.4256656,3,252000000,odom,base_link,-3.533442077257421e-19,1.1030737100170512e-37,0.0,0.0,0.0,0.0,1.0,<array len=36>,-5.608635493116126e-19,6.952647974571304e-42,0.0,0.0,0.0,5.443432902541288e-20,<array len=36>
1765492308.4481583,3,273000000,odom,base_link,-3.7164476700088873e-19,1.170370892047657e-37,0.0,0.0,0.0,0.0,1.0,<array len=36>,-5.272665981591873e-19,3.090403787430503e-41,0.0,0.0,0.0,-5.908884663881915e-21,<array len=36>
1765492308.4655976,3,294000000,odom,base_link,-3.76366181801691e-19,1.1910758571162494e-37,0.0,0.0,0.0,0.0,1.0,<array len=36>,-3.5852681327286256e-19,2.458643388632842e-41,0.0,0.0,0.0,-8.103033695582609e-20,<array len=36>
1765492308.4866626,3,315000000,odom,base_link,-3.9761889389431587e-19,1.269769416767625e-37,0.0,0.0,0.0,0.0,1.0,<array len=36>,-4.369695172647845e-19,4.4264750318385055e-41,0.0,0.0,0.0,-8.330569169400563e-20,<array len=36>
1765492308.5077245,3,336000000,odom,base_link,-4.1008454410246977e-19,1.3134161136570995e-37,0.0,0.0,0.0,0.0,1.0,<array len=36>,-4.912171033787483e-19,4.037811749444186e-41,0.0,0.0,0.0,-1.063259087947335e-19,<array len=36>
1765492308.5256808,3,357000000,odom,base_link,-4.239356676209431e-19,1.3590274698811664e-37,0.0,0.0,0.0,0.0,1.0,<array len=36>,-6.449891087973854e-19,3.934111037802069e-41,0.0,0.0,0.0,-9.51497000235725e-20,<array len=36>
1765492308.5470297,3,378000000,odom,base_link,-4.270350862107018e-19,1.3689293764557288e-37,0.0,0.0,0.0,0.0,1.0,<array len=36>,-5.396757987070677e-19,2.497012270686624e-41,0.0,0.0,0.0,-4.7545072183879484e-20,<array len=36>
1765492308.567918,3,399000000,odom,base_link,-4.390385316604188e-19,1.4106623446217712e-37,0.0,0.0,0.0,0.0,1.0,<array len=36>,-5.82761636963385e-19,3.037788254981397e-41,0.0,0.0,0.0,6.924770674037714e-21,<array len=36>
1765492308.5861344,3,420000000,odom,base_link,-4.391312975845597e-19,1.4130621308520144e-37,0.0,0.0,0.0,0.0,1.0,<array len=36>,-4.215867126116829e-19,1.7652853150204458e-41,0.0,0.0,0.0,-9.059070064600227e-21,<array len=36>
1765492308.6074996,3,441000000,odom,base_link,-4.417761086419548e-19,1.4265474672917632e-37,0.0,0.0,0.0,0.0,1.0,<array len=36>,-3.382225131703393e-19,1.573488769522195e-41,0.0,0.0,0.0,-1.4891504208411838e-20,<array len=36>
1765492308.6285326,3,462000000,odom,base_link,-4.416011966293091e-19,1.4301574323909116e-37,0.0,0.0,0.0,0.0,1.0,<array len=36>,-2.2951191943783344e-19,1.0910306346652502e-41,0.0,0.0,0.0,-7.673311911406191e-20,<array len=36>
1765492308.6470098,3,483000000,odom,base_link,-4.458517442978566e-19,1.4501928487781498e-37,0.0,0.0,0.0,0.0,1.0,<array len=36>,-2.2827593721471568e-19,1.4962544406064247e-41,0.0,0.0,0.0,-1.8568615101714684e-19,<array len=36>
1765492308.6726224,3,501000000,odom,base_link,-4.753807968990085e-19,1.571148948695608e-37,0.0,0.0,0.0,0.0,1.0,<array len=36>,-3.934732600766334e-19,5.690423291060169e-41,0.0,0.0,0.0,-2.71506807001535e-19,<array len=36>
1765492308.6928315,3,525000000,odom,base_link,-4.945408241663654e-19,1.6435525615550894e-37,0.0,0.0,0.0,0.0,1.0,<array len=36>,-5.489113888379341e-19,5.720809940784162e-41,0.0,0.0,0.0,-3.0995497971535775e-19,<array len=36>
1765492308.7110775,3,546000000,odom,base_link,-5.133378693187305e-19,1.7140900698237311e-37,0.0,0.0,0.0,0.0,1.0,<array len=36>,-6.819181493398016e-19,5.793702869205028e-41,0.0,0.0,0.0,-3.2619217602802245e-19,<array len=36>
1765492308.7322106,3,567000000,odom,base_link,-5.185594351704903e-19,1.730618124483762e-37,0.0,0.0,0.0,0.0,1.0,<array len=36>,-7.307422574785623e-19,3.7376410526601666e-41,0.0,0.0,0.0,-2.6888256596796496e-19,<array len=36>
1765492308.7531788,3,588000000,odom,base_link,-5.253330460926478e-19,1.7540028646193595e-37,0.0,0.0,0.0,0.0,1.0,<array len=36>,-7.539409729169426e-19,3.0079768409410503e-41,0.0,0.0,0.0,-1.4230782122155904e-19,<array len=36>
1765492308.7715747,3,609000000,odom,base_link,-5.412131584449182e-19,1.754009735145553e-37,0.0,0.0,0.0,0.0,1.0,<array len=36>,-7.584506796802317e-19,3.535381438554138e-41,0.0,0.0,0.0,-1.4230782122155904e-19,<array len=36>
1765492308.8139877,3,630000000,odom,base_link,-5.453054086907262e-19,1.8334178069966266e-37,0.0,0.0,0.0,0.0,1.0,<array len=36>,-5.024294792638593e-19,3.6035339145182074e-41,0.0,0.0,0.0,6.490546092545879e-20,<array len=36>
1765492308.832246,3,651000000,odom,base_link,-5.686720114993055e-19,1.9198065689084756e-37,0.0,0.0,0.0,0.0,1.0,<array len=36>,-5.36072308958368e-19,5.422911356911696e-41,0.0,0.0,0.0,1.2008405194828707e-19,<array len=36>
1765492308.8530653,3,672000000,odom,base_link,-5.775422522219451e-19,1.951652338297265e-37,0.0,0.0,0.0,0.0,1.0,<array len=36>,-5.703689868603198e-19,4.1919835437951964e-41,0.0,0.0,0.0,1.1822573796206691e-19,<array len=36>
1765492308.8745785,3,693000000,odom,base_link,-5.88702143752031e-19,1.9925383524741318e-37,0.0,0.0,0.0,0.0,1.0,<array len=36>,-6.105652207558292e-19,3.942367038930056e-41,0.0,0.0,0.0,6.099486542715354e-20,<array len=36>
1765492308.8926742,3,714000000,odom,base_link,-5.910014900034304e-19,2.000829890013828e-37,0.0,0.0,0.0,0.0,1.0,<array len=36>,-5.685316411771963e-19,2.546374616585017e-41,0.0,0.0,0.0,-3.409127854409676e-21,<array len=36>
1765492308.9136205,3,735000000,odom,base_link,-5.989753880186503e-19,2.0324683701490468e-37,0.0,0.0,0.0,0.0,1.0,<array len=36>,-5.267021682863686e-19,2.7788357931166217e-41,0.0,0.0,0.0,-3.0564328609382926e-20,<array len=36>
1765492308.934849,3,756000000,odom,base_link,-6.113506195305797e-19,2.0811886402418038e-37,0.0,0.0,0.0,0.0,1.0,<array len=36>,-4.370168244585074e-19,3.571854439763554e-41,0.0,0.0,0.0,-2.4610179312008826e-20,<array len=36>
1765492308.9530237,3,777000000,odom,base_link,-6.403447151769705e-19,2.1870988128119153e-37,0.0,0.0,0.0,0.0,1.0,<array len=36>,-5.809356263105739e-19,6.218488228293044e-41,0.0,0.0,0.0,-8.10909032976449e-21,<array len=36>
1765492308.9743967,3,798000000,odom,base_link,-6.579137539680434e-19,2.2487882061736475e-37,0.0,0.0,0.0,0.0,1.0,<array len=36>,-6.397003222438272e-19,5.810023438704012e-41,0.0,0.0,0.0,3.5906570389363064e-20,<array len=36>
1765492308.9957104,3,819000000,odom,base_link,-6.766667820326655e-19,2.3137956100259533e-37,0.0,0.0,0.0,0.0,1.0,<array len=36>,-7.714039391771045e-19,5.751245227270878e-41,0.0,0.0,0.0,6.314988896891958e-20,<array len=36>
1765492309.0140188,3,840000000,odom,base_link,-6.77339102460814e-19,2.3136430865408847e-37,0.0,0.0,0.0,0.0,1.0,<array len=36>,-7.270529874074032e-19,3.171434553605438e-41,0.0,0.0,0.0,4.7822941638458686e-20,<array len=36>
1765492309.035198,3,861000000,odom,base_link,-6.816645792207046e-19,2.3307665442279395e-37,0.0,0.0,0.0,0.0,1.0,<array len=36>,-6.627917996106422e-19,2.5752421020459707e-41,0.0,0.0,0.0,1.116683093075215e-20,<array len=36>
1765492309.0565498,3,882000000,odom,base_link,-6.821743620354228e-19,2.3376564604450288e-37,0.0,0.0,0.0,0.0,1.0,<array len=36>,-4.451610865124729e-19,1.881867358570834e-41,0.0,0.0,0.0,-1.5137747305167173e-20,<array len=36>
1765492309.0744522,3,903000000,odom,base_link,-6.760290348054618e-19,2.321699894865596e-37,0.0,0.0,0.0,0.0,1.0,<array len=36>,-2.539716172410792e-19,6.399942436430867e-42,0.0,0.0,0.0,-6.440073166170198e-20,<array len=36>
1765492309.0957804,3,924000000,odom,base_link,-6.90741097182099e-19,2.3879701594095358e-37,0.0,0.0,0.0,0.0,1.0,<array len=36>,-2.1016782564231094e-19,3.254424110861237e-41,0.0,0.0,0.0,-1.3134465552851957e-19,<array len=36>
1765492309.1172202,3,945000000,odom,base_link,-7.152174475450611e-19,2.4880428972386817e-37,0.0,0.0,0.0,0.0,1.0,<array len=36>,-3.824083205932587e-19,5.885443625439924e-41,0.0,0.0,0.0,-1.5726850601809352e-19,<array len=36>
1765492309.1348484,3,966000000,odom,base_link,-7.343089847610745e-19,2.561678843338039e-37,0.0,0.0,0.0,0.0,1.0,<array len=36>,-5.0096782621041225e-19,6.162976018337412e-41,0.0,0.0,0.0,-1.815265363991386e-19,<array len=36>
1765492309.1563616,3,987000000,odom,base_link,-7.627203409984272e-19,2.6702137127992608e-37,0.0,0.0,0.0,0.0,1.0,<array len=36>,-7.136665341808357e-19,7.688492661146675e-41,0.0,0.0,0.0,-1.8718123305404422e-19,<array len=36>
1765492309.1785426,4,8000000,odom,base_link,-7.812322259554862e-19,2.7363140041994357e-37,0.0,0.0,0.0,0.0,1.0,<array len=36>,-9.048315747263511e-19,6.798040823545166e-41,0.0,0.0,0.0,-1.6314672626945165e-19,<array len=36>
1765492309.20045,4,29000000,odom,base_link,-8.002964478000545e-19,2.736329286114939e-37,0.0,0.0,0.0,0.0,1.0,<array len=36>,-9.108086009468198e-19,7.756164417524512e-41,0.0,0.0,0.0,-1.6314672626945165e-19,<array len=36>
1765492309.242648,4,50000000,odom,base_link,-8.14568597712555e-19,2.8631860010397043e-37,0.0,0.0,0.0,0.0,1.0,<array len=36>,-8.869768991384281e-19,5.512910020680972e-41,0.0,0.0,0.0,-1.221717929866401e-19,<array len=36>
1765492309.2612185,4,71000000,odom,base_link,-8.285023061473631e-19,2.9236359907056314e-37,0.0,0.0,0.0,0.0,1.0,<array len=36>,-8.546008377178314e-19,5.537209204878111e-41,0.0,0.0,0.0,-1.5727841803846092e-19,<array len=36>
1765492309.2823389,4,92000000,odom,base_link,-8.326448756811671e-19,2.945628724314999e-37,0.0,0.0,0.0,0.0,1.0,<array len=36>,-6.821078314954181e-19,4.0450266152029013e-41,0.0,0.0,0.0,-2.1668672821423237e-19,<array len=36>
1765492309.3029418,4,113000000,odom,base_link,-8.342423387648614e-19,2.9592578814864657e-37,0.0,0.0,0.0,0.0,1.0,<array len=36>,-5.569451844632999e-19,2.9828504898111325e-41,0.0,0.0,0.0,-2.8945820967663382e-19,<array len=36>
1765492309.3211606,4,134000000,odom,base_link,-8.353181279510147e-19,2.972168340670874e-37,0.0,0.0,0.0,0.0,1.0,<array len=36>,-3.850945701136005e-19,2.4347913871751677e-41,0.0,0.0,0.0,-3.28534026049616e-19,<array len=36>
1765492309.3422053,4,155000000,odom,base_link,-8.587195298720384e-19,3.08378313011724e-37,0.0,0.0,0.0,0.0,1.0,<array len=36>,-4.730022372791513e-19,6.050368937178376e-41,0.0,0.0,0.0,-3.3953054735542866e-19,<array len=36>
1765492309.3636622,4,176000000,odom,base_link,-8.908817316055813e-19,3.2293104652025307e-37,0.0,0.0,0.0,0.0,1.0,<array len=36>,-6.079295986463778e-19,9.191563180267742e-41,0.0,0.0,0.0,-3.155941795018759e-19,<array len=36>
1765492309.3822536,4,197000000,odom,base_link,-9.130114893140265e-19,3.3260615041696824e-37,0.0,0.0,0.0,0.0,1.0,<array len=36>,-7.459472902073038e-19,8.852917741847354e-41,0.0,0.0,0.0,-2.8903060987193453e-19,<array len=36>
1765492309.4032555,4,218000000,odom,base_link,-9.498966973420948e-19,3.4903756010878036e-37,0.0,0.0,0.0,0.0,1.0,<array len=36>,-1.014912841772342e-18,1.1368267508522121e-40,0.0,0.0,0.0,-2.57961659983926e-19,<array len=36>
1765492309.4242754,4,239000000,odom,base_link,-9.720150440561926e-19,3.584518161899562e-37,0.0,0.0,0.0,0.0,1.0,<array len=36>,-1.1862729851881363e-18,9.879384117097036e-41,0.0,0.0,0.0,-2.6452815709375496e-19,<array len=36>
1765492309.442477,4,260000000,odom,base_link,-9.762410492057531e-19,3.5997633124184948e-37,0.0,0.0,0.0,0.0,1.0,<array len=36>,-1.0590887535247974e-18,6.052914795825265e-41,0.0,0.0,0.0,-3.1676855996733805e-19,<array len=36>
1765492309.4636881,4,281000000,odom,base_link,-9.861653420404883e-19,3.6559614265270943e-37,0.0,0.0,0.0,0.0,1.0,<array len=36>,-8.95050655352991e-19,5.776129484481252e-41,0.0,0.0,0.0,-3.991785398084501e-19,<array len=36>
1765492309.4849312,4,302000000,odom,base_link,-9.857409381541645e-19,3.6614734423101744e-37,0.0,0.0,0.0,0.0,1.0,<array len=36>,-7.217568631634403e-19,3.656052484042269e-41,0.0,0.0,0.0,-4.760595465487254e-19,<array len=36>
1765492309.5035028,4,323000000,odom,base_link,-9.81163280186018e-19,3.6500175650354883e-37,0.0,0.0,0.0,0.0,1.0,<array len=36>,-4.075971887303685e-19,1.9417356453160308e-41,0.0,0.0,0.0,-5.523461945721713e-19,<array len=36>
1765492309.5241113,4,344000000,odom,base_link,-9.77020697106131e-19,3.6429769288380744e-37,0.0,0.0,0.0,0.0,1.0,<array len=36>,-1.9709697394238336e-19,1.2663649032203316e-41,0.0,0.0,0.0,-6.119784076636578e-19,<array len=36>
1765492309.5455399,4,365000000,odom,base_link,-9.979791865183817e-19,3.772829218504292e-37,0.0,0.0,0.0,0.0,1.0,<array len=36>,-3.014991385880644e-19,6.319916214406828e-41,0.0,0.0,0.0,-6.1415530320564065e-19,<array len=36>
1765492309.5638773,4,386000000,odom,base_link,-1.0263100320393216e-18,3.935726757349764e-37,0.0,0.0,0.0,0.0,1.0,<array len=36>,-4.3135724780283243e-19,1.0138848285586489e-40,0.0,0.0,0.0,-5.777119736521391e-19,<array len=36>
1765492309.584821,4,407000000,odom,base_link,-1.0614706839251322e-18,4.131596597571677e-37,0.0,0.0,0.0,0.0,1.0,<array len=36>,-6.961999361107327e-19,1.335738697009531e-40,0.0,0.0,0.0,-5.266680203142262e-19,<array len=36>
1765492309.606072,4,428000000,odom,base_link,-1.111098199605798e-18,4.4044770673054535e-37,0.0,0.0,0.0,0.0,1.0,<array len=36>,-1.1085665704549387e-18,1.8025885468235363e-40,0.0,0.0,0.0,-4.676005252244488e-19,<array len=36>
1765492309.6241925,4,449000000,odom,base_link,-1.13446015369577e-18,4.404516822505044e-37,0.0,0.0,0.0,0.0,1.0,<array len=36>,-1.1163814381138099e-18,1.983620937994032e-40,0.0,0.0,0.0,-4.676005252244488e-19,<array len=36>
1765492309.667041,4,470000000,odom,base_link,-1.1859703100854576e-18,4.799856380272297e-37,0.0,0.0,0.0,0.0,1.0,<array len=36>,-1.6062665534127464e-18,1.5228649422190062e-40,0.0,0.0,0.0,-3.3364458474621337e-19,<array len=36>
1765492309.6852286,4,491000000,odom,base_link,-1.1999205898738266e-18,4.87737586739247e-37,0.0,0.0,0.0,0.0,1.0,<array len=36>,-1.5231016339242484e-18,1.1418445741495326e-40,0.0,0.0,0.0,-3.050852842497508e-19,<array len=36>
1765492309.706125,4,512000000,odom,base_link,-1.210730177885985e-18,4.947051755999409e-37,0.0,0.0,0.0,0.0,1.0,<array len=36>,-1.3550724866065677e-18,9.243538973404784e-41,0.0,0.0,0.0,-2.923519517916212e-19,<array len=36>
1765492309.727738,4,533000000,odom,base_link,-1.2177653205604558e-18,5.003702673601322e-37,0.0,0.0,0.0,0.0,1.0,<array len=36>,-1.0478272023109537e-18,7.671216466536327e-41,0.0,0.0,0.0,-2.7337034921409644e-19,<array len=36>
1765492309.7530835,4,554000000,odom,base_link,-1.1760738220782723e-18,4.777438672887578e-37,0.0,0.0,0.0,0.0,1.0,<array len=36>,-3.267220750499464e-19,-4.249794447396621e-41,0.0,0.0,0.0,-2.8162040422224216e-19,<array len=36>
1765492309.7731783,4,575000000,odom,base_link,-1.129733004317342e-18,4.52967902428736e-37,0.0,0.0,0.0,0.0,1.0,<array len=36>,2.13567498943486e-19,-1.1037928263647644e-40,0.0,0.0,0.0,-2.982671931825074e-19,<array len=36>
1765492309.7942498,4,596000000,odom,base_link,-1.1140902202548643e-18,4.466630588720189e-37,0.0,0.0,0.0,0.0,1.0,<array len=36>,4.959339277834049e-19,-7.180191996299195e-41,0.0,0.0,0.0,-2.9105931772432736e-19,<array len=36>
1765492309.8119633,4,617000000,odom,base_link,-1.0947324573307143e-18,4.372404284886263e-37,0.0,0.0,0.0,0.0,1.0,<array len=36>,7.752281145897896e-19,-6.543784734296451e-41,0.0,0.0,0.0,-2.3751499264807317e-19,<array len=36>
1765492309.8331327,4,638000000,odom,base_link,-1.089725968064487e-18,4.360336665217166e-37,0.0,0.0,0.0,0.0,1.0,<array len=36>,9.218448889475835e-19,-3.03181871683749e-41,0.0,0.0,0.0,-1.8297945322200423e-19,<array len=36>
1765492309.8541555,4,659000000,odom,base_link,-1.0898381155725764e-18,4.363347385025051e-37,0.0,0.0,0.0,0.0,1.0,<array len=36>,6.721108132395319e-19,-7.23272437439499e-42,0.0,0.0,0.0,-1.2904537308077638e-19,<array len=36>
1765492309.8720145,4,680000000,odom,base_link,-1.0890291676318985e-18,4.345864224302604e-37,0.0,0.0,0.0,0.0,1.0,<array len=36>,3.7000922512477672e-19,-4.037101668553466e-42,0.0,0.0,0.0,-5.59147056886688e-20,<array len=36>
1765492309.8928277,4,701000000,odom,base_link,-1.0946719638625156e-18,4.365287729453103e-37,0.0,0.0,0.0,0.0,1.0,<array len=36>,2.239958463842909e-19,1.1982794214378055e-41,0.0,0.0,0.0,1.9401571626001276e-20,<array len=36>
1765492309.9141939,4,722000000,odom,base_link,-1.0838020475300557e-18,4.289512747079125e-37,0.0,0.0,0.0,0.0,1.0,<array len=36>,1.7066467936604927e-19,-1.7633732008976352e-41,0.0,0.0,0.0,1.4460277662650593e-20,<array len=36>
1765492309.932219,4,743000000,odom,base_link,-1.049297689439576e-18,4.080794106607189e-37,0.0,0.0,0.0,0.0,1.0,<array len=36>,4.04503830206636e-19,-8.491791062196902e-41,0.0,0.0,0.0,1.318900880561378e-20,<array len=36>
1765492309.953253,4,764000000,odom,base_link,-1.0433843604305379e-18,4.051248841199786e-37,0.0,0.0,0.0,0.0,1.0,<array len=36>,4.665053423789497e-19,-4.808316386400495e-41,0.0,0.0,0.0,2.5561975277652668e-20,<array len=36>
1765492309.9739516,4,785000000,odom,base_link,-1.0029039397002199e-18,3.818076074849879e-37,0.0,0.0,0.0,0.0,1.0,<array len=36>,7.598782771559871e-19,-1.1039009899073754e-40,0.0,0.0,0.0,1.5938135161328022e-20,<array len=36>
1765492309.9920397,4,806000000,odom,base_link,-9.744144891190241e-19,3.663368213939181e-37,0.0,0.0,0.0,0.0,1.0,<array len=36>,1.0254250418980375e-18,-1.1086339830181681e-40,0.0,0.0,0.0,7.103950089326848e-21,<array len=36>
1765492310.0132115,4,827000000,odom,base_link,-9.333950439512676e-19,3.433027825092826e-37,0.0,0.0,0.0,0.0,1.0,<array len=36>,1.2709986734329932e-18,-1.414494162419125e-40,0.0,0.0,0.0,8.187608233635958e-21,<array len=36>
1765492310.0338376,4,848000000,odom,base_link,-8.922677380005347e-19,3.1940583801673477e-37,0.0,0.0,0.0,0.0,1.0,<array len=36>,1.3539352636817238e-18,-1.605788487027099e-40,0.0,0.0,0.0,-2.3772860934358097e-20,<array len=36>
1765492310.0518887,4,869000000,odom,base_link,-8.6361465830807945e-19,3.1940249634811372e-37,0.0,0.0,0.0,0.0,1.0,<array len=36>,1.3749294689330622e-18,-1.576753056830962e-40,0.0,0.0,0.0,-2.3772860934358097e-20,<array len=36>
1765492310.094192,4,890000000,odom,base_link,-8.774748192422696e-19,3.109022861443999e-37,0.0,0.0,0.0,0.0,1.0,<array len=36>,1.1673393717739032e-18,-5.968646818679291e-41,0.0,0.0,0.0,-7.593656061882624e-20,<array len=36>
1765492310.1121376,4,911000000,odom,base_link,-8.711126926763285e-19,3.0593921407359804e-37,0.0,0.0,0.0,0.0,1.0,<array len=36>,1.0080529551731858e-18,-4.681114775035619e-41,0.0,0.0,0.0,-9.168797343034557e-20,<array len=36>
1765492310.1330526,4,932000000,odom,base_link,-8.529520466884166e-19,2.934728524297962e-37,0.0,0.0,0.0,0.0,1.0,<array len=36>,8.411355876679909e-19,-7.026868830963221e-41,0.0,0.0,0.0,-9.460985545068903e-20,<array len=36>
1765492310.1543858,4,953000000,odom,base_link,-8.649994483363155e-19,2.9899843388435106e-37,0.0,0.0,0.0,0.0,1.0,<array len=36>,4.378796906194303e-19,-1.1298012897648173e-41,0.0,0.0,0.0,-6.13642153202743e-20,<array len=36>
1765492310.1725726,4,974000000,odom,base_link,-8.82053693167e-19,3.0729895016360026e-37,0.0,0.0,0.0,0.0,1.0,<array len=36>,2.1349310931201167e-19,2.880286218060721e-41,0.0,0.0,0.0,-3.663250677224733e-21,<array len=36>
1765492310.193584,4,995000000,odom,base_link,-8.981756767666967e-19,3.1520121604762837e-37,0.0,0.0,0.0,0.0,1.0,<array len=36>,1.224385425842343e-20,4.720955732343793e-41,0.0,0.0,0.0,6.360284091831336e-20,<array len=36>
1765492310.2151248,5,16000000,odom,base_link,-9.27982992258142e-19,3.3086110782421602e-37,0.0,0.0,0.0,0.0,1.0,<array len=36>,-3.004282458237538e-19,8.709688208301201e-41,0.0,0.0,0.0,1.0440495598870006e-19,<array len=36>
1765492310.2328198,5,37000000,odom,base_link,-9.540193341556202e-19,3.4382254120441224e-37,0.0,0.0,0.0,0.0,1.0,<array len=36>,-6.823941081200909e-19,9.654644657490704e-41,0.0,0.0,0.0,1.5544637099567006e-19,<array len=36>
1765492310.2538667,5,58000000,odom,base_link,-9.837219612280984e-19,3.5915866677190822e-37,0.0,0.0,0.0,0.0,1.0,<array len=36>,-8.81713706636559e-19,1.109191753970539e-40,0.0,0.0,0.0,1.7440967020771454e-19,<array len=36>
1765492310.281062,5,76000000,odom,base_link,-1.0079257906374843e-18,3.7215955162484024e-37,0.0,0.0,0.0,0.0,1.0,<array len=36>,-1.0138928540142521e-18,1.1112316299859077e-40,0.0,0.0,0.0,1.5976262481372206e-19,<array len=36>
1765492310.2989,5,100000000,odom,base_link,-1.028485657138644e-18,3.828030218174019e-37,0.0,0.0,0.0,0.0,1.0,<array len=36>,-1.081160545634588e-18,9.82163834513542e-41,0.0,0.0,0.0,1.1813319036586438e-19,<array len=36>
1765492310.3198621,5,121000000,odom,base_link,-1.0537566902404706e-18,3.972997458722446e-37,0.0,0.0,0.0,0.0,1.0,<array len=36>,-1.0862759332196103e-18,1.0938579111098871e-40,0.0,0.0,0.0,1.12618703715876e-19,<array len=36>
1765492310.340989,5,142000000,odom,base_link,-1.0790852239085966e-18,4.117294692138418e-37,0.0,0.0,0.0,0.0,1.0,<array len=36>,-1.1170534794333772e-18,1.1521784906287119e-40,0.0,0.0,0.0,1.1391253232916292e-19,<array len=36>
1765492310.3591332,5,163000000,odom,base_link,-1.120807702311641e-18,4.353072283553878e-37,0.0,0.0,0.0,0.0,1.0,<array len=36>,-1.2394725270829923e-18,1.5454925805465975e-40,0.0,0.0,0.0,1.108856868048913e-19,<array len=36>
1765492310.380162,5,184000000,odom,base_link,-1.1607363827021179e-18,4.575760103703008e-37,0.0,0.0,0.0,0.0,1.0,<array len=36>,-1.3625533515589244e-18,1.6934051152090794e-40,0.0,0.0,0.0,1.211463184916091e-19,<array len=36>
1765492310.401488,5,205000000,odom,base_link,-1.1995767767324942e-18,4.790636610318923e-37,0.0,0.0,0.0,0.0,1.0,<array len=36>,-1.5422392007040975e-18,1.74077534982672e-40,0.0,0.0,0.0,1.0605161831601252e-19,<array len=36>
1765492310.419606,5,226000000,odom,base_link,-1.2580054698655067e-18,5.1189314054623905e-37,0.0,0.0,0.0,0.0,1.0,<array len=36>,-1.8157877443272198e-18,2.216662724498208e-40,0.0,0.0,0.0,6.345545951594966e-20,<array len=36>
1765492310.4407475,5,247000000,odom,base_link,-1.2976629130478192e-18,5.337941729560865e-37,0.0,0.0,0.0,0.0,1.0,<array len=36>,-1.95480942804952e-18,2.02873972995035e-40,0.0,0.0,0.0,2.5408253579802302e-20,<array len=36>
1765492310.461699,5,268000000,odom,base_link,-1.309416124841756e-18,5.404851254398974e-37,0.0,0.0,0.0,0.0,1.0,<array len=36>,-1.7561951262616422e-18,1.3424199942819387e-40,0.0,0.0,0.0,6.190913052757495e-21,<array len=36>
1765492310.4797385,5,289000000,odom,base_link,-1.3464806527859796e-18,5.404881404625726e-37,0.0,0.0,0.0,0.0,1.0,<array len=36>,-1.7737599160453626e-18,1.5290301725933513e-40,0.0,0.0,0.0,6.190913052757495e-21,<array len=36>
1765492310.5223768,5,310000000,odom,base_link,-1.326594275325987e-18,5.527593149600876e-37,0.0,0.0,0.0,0.0,1.0,<array len=36>,-1.2781679883024068e-18,9.56114731797367e-41,0.0,0.0,0.0,5.665110531791894e-20,<array len=36>
1765492310.540434,5,331000000,odom,base_link,-1.3387015116615535e-18,5.612881525545819e-37,0.0,0.0,0.0,0.0,1.0,<array len=36>,-9.25710403301992e-19,8.916098013826416e-41,0.0,0.0,0.0,1.1189559742829864e-19,<array len=36>
1765492310.5616884,5,352000000,odom,base_link,-1.3813537984770623e-18,5.861820282156418e-37,0.0,0.0,0.0,0.0,1.0,<array len=36>,-9.310896743298635e-19,1.5066736764080547e-40,0.0,0.0,0.0,1.520701849234698e-19,<array len=36>
1765492310.5829222,5,373000000,odom,base_link,-1.3967145647235859e-18,5.951123471938608e-37,0.0,0.0,0.0,0.0,1.0,<array len=36>,-9.481162764555832e-19,1.185876104766301e-40,0.0,0.0,0.0,1.9440237168207811e-19,<array len=36>
1765492310.6010947,5,394000000,odom,base_link,-1.4320513367854763e-18,6.136992078152273e-37,0.0,0.0,0.0,0.0,1.0,<array len=36>,-1.2278245945523929e-18,1.4104182276499508e-40,0.0,0.0,0.0,2.134593324469746e-19,<array len=36>
1765492310.6223397,5,415000000,odom,base_link,-1.473274327506658e-18,6.345433412852003e-37,0.0,0.0,0.0,0.0,1.0,<array len=36>,-1.378413428826901e-18,1.614918809556948e-40,0.0,0.0,0.0,2.562142863571906e-19,<array len=36>
1765492310.643545,5,436000000,odom,base_link,-1.526675016902504e-18,6.605441333580765e-37,0.0,0.0,0.0,0.0,1.0,<array len=36>,-1.685836765091104e-18,1.9246210351180004e-40,0.0,0.0,0.0,3.1636375974124387e-19,<array len=36>
1765492310.6618164,5,457000000,odom,base_link,-1.5641673376945947e-18,6.785058398430749e-37,0.0,0.0,0.0,0.0,1.0,<array len=36>,-1.6613249096144265e-18,1.7664342674430572e-40,0.0,0.0,0.0,3.652277313981161e-19,<array len=36>
1765492310.6832342,5,478000000,odom,base_link,-1.6002243303674235e-18,6.956900114860845e-37,0.0,0.0,0.0,0.0,1.0,<array len=36>,-1.8214486398042897e-18,1.6618266253897715e-40,0.0,0.0,0.0,4.018250329056019e-19,<array len=36>
1765492310.7041469,5,499000000,odom,base_link,-1.64729837218952e-18,7.178142954154655e-37,0.0,0.0,0.0,0.0,1.0,<array len=36>,-1.9343318125066616e-18,1.8090143732890082e-40,0.0,0.0,0.0,4.298111441018071e-19,<array len=36>
1765492310.7228746,5,520000000,odom,base_link,-1.6976215156305963e-18,7.409508565529464e-37,0.0,0.0,0.0,0.0,1.0,<array len=36>,-2.032542102083325e-18,1.9267644134519295e-40,0.0,0.0,0.0,4.587067655302556e-19,<array len=36>
1765492310.7435899,5,541000000,odom,base_link,-1.7420749356216644e-18,7.6108917936433e-37,0.0,0.0,0.0,0.0,1.0,<array len=36>,-1.9982076602522104e-18,1.8711608377270682e-40,0.0,0.0,0.0,4.591412643610398e-19,<array len=36>
1765492310.7650158,5,562000000,odom,base_link,-1.7918817818750212e-18,7.83027801359897e-37,0.0,0.0,0.0,0.0,1.0,<array len=36>,-2.1067869752580206e-18,1.9199259001951663e-40,0.0,0.0,0.0,4.76274444995551e-19,<array len=36>
1765492310.7830107,5,583000000,odom,base_link,-1.852321897109002e-18,8.084176433504253e-37,0.0,0.0,0.0,0.0,1.0,<array len=36>,-2.310054171311299e-18,2.085960343457438e-40,0.0,0.0,0.0,5.183577370498163e-19,<array len=36>
1765492310.8079946,5,604000000,odom,base_link,-1.865895731537146e-18,8.14387875415177e-37,0.0,0.0,0.0,0.0,1.0,<array len=36>,-2.0879808589963344e-18,1.4068048167317415e-40,0.0,0.0,0.0,5.410942026269492e-19,<array len=36>
1765492310.8296866,5,625000000,odom,base_link,-1.8837346636493742e-18,8.224992645290797e-37,0.0,0.0,0.0,0.0,1.0,<array len=36>,-1.8433080042808508e-18,1.1566940617273597e-40,0.0,0.0,0.0,5.472730327938891e-19,<array len=36>
1765492310.8476927,5,646000000,odom,base_link,-1.8927462902688233e-18,8.273281052262266e-37,0.0,0.0,0.0,0.0,1.0,<array len=36>,-1.5581172502067415e-18,9.036671287760754e-41,0.0,0.0,0.0,5.12480896998695e-19,<array len=36>
1765492310.868665,5,667000000,odom,base_link,-1.9250880137477963e-18,8.417324769394187e-37,0.0,0.0,0.0,0.0,1.0,<array len=36>,-1.400788047156003e-18,1.1563218316924011e-40,0.0,0.0,0.0,4.505213289532393e-19,<array len=36>
1765492310.8900275,5,688000000,odom,base_link,-1.945899288660156e-18,8.51611430027476e-37,0.0,0.0,0.0,0.0,1.0,<array len=36>,-1.0900051594526493e-18,1.1040740802715125e-40,0.0,0.0,0.0,3.5050491147264933e-19,<array len=36>
1765492310.9081495,5,709000000,odom,base_link,-1.9688464327522944e-18,8.51614085021465e-37,0.0,0.0,0.0,0.0,1.0,<array len=36>,-1.095437135036707e-18,1.4244916234128128e-40,0.0,0.0,0.0,3.5050491147264933e-19,<array len=36>
1765492310.9527578,5,730000000,odom,base_link,-1.9691911478129994e-18,8.630170471479052e-37,0.0,0.0,0.0,0.0,1.0,<array len=36>,-9.663740016433826e-19,8.307377575414599e-41,0.0,0.0,0.0,1.399610857484554e-19,<array len=36>
1765492310.9708931,5,751000000,odom,base_link,-1.957848224859056e-18,8.587770619297661e-37,0.0,0.0,0.0,0.0,1.0,<array len=36>,-7.803939387110832e-19,3.8865965282221547e-41,0.0,0.0,0.0,6.776003482746486e-20,<array len=36>
1765492310.991868,5,772000000,odom,base_link,-1.9470568624243202e-18,8.553607860065699e-37,0.0,0.0,0.0,0.0,1.0,<array len=36>,-4.1644279111780296e-19,2.0106541242507242e-41,0.0,0.0,0.0,3.5017591556854395e-20,<array len=36>
1765492311.0129151,5,793000000,odom,base_link,-1.9540783205902313e-18,8.595367979239317e-37,0.0,0.0,0.0,0.0,1.0,<array len=36>,-2.5502257623643244e-19,4.05888833201545e-41,0.0,0.0,0.0,4.1469491595425504e-20,<array len=36>
1765492311.0330508,5,814000000,odom,base_link,-1.9610891626535463e-18,8.63303467523481e-37,0.0,0.0,0.0,0.0,1.0,<array len=36>,-1.87374147932229e-19,4.898703764438759e-41,0.0,0.0,0.0,3.1270506686354943e-20,<array len=36>
1765492311.0519629,5,835000000,odom,base_link,-1.9609876003251056e-18,8.638768332224842e-37,0.0,0.0,0.0,0.0,1.0,<array len=36>,-6.335834084152384e-20,4.044783312376579e-41,0.0,0.0,0.0,1.4121383871416766e-20,<array len=36>
1765492311.0730412,5,856000000,odom,base_link,-1.9583666443558878e-18,8.630486384935867e-37,0.0,0.0,0.0,0.0,1.0,<array len=36>,-1.0191763708309398e-19,3.0552775116758994e-41,0.0,0.0,0.0,1.002545803731812e-20,<array len=36>
1765492311.0910182,5,877000000,odom,base_link,-1.9319598449588262e-18,8.519450066689586e-37,0.0,0.0,0.0,0.0,1.0,<array len=36>,4.045286524965396e-20,-1.508029375951896e-41,0.0,0.0,0.0,-3.019015398611162e-21,<array len=36>
1765492311.112201,5,898000000,odom,base_link,-1.9303574345296136e-18,8.518016602452835e-37,0.0,0.0,0.0,0.0,1.0,<array len=36>,1.3972082129083656e-19,5.217509695684662e-42,0.0,0.0,0.0,-4.3327501319306334e-20,<array len=36>
1765492311.1334696,5,919000000,odom,base_link,-1.9168317762831247e-18,8.464341681455937e-37,0.0,0.0,0.0,0.0,1.0,<array len=36>,3.2115406776963583e-19,-5.5867401982710014e-42,0.0,0.0,0.0,-9.305531721332731e-20,<array len=36>
1765492311.1512876,5,940000000,odom,base_link,-1.9177084243676706e-18,8.475188724340967e-37,0.0,0.0,0.0,0.0,1.0,<array len=36>,3.43692782309789e-19,1.4242663526341776e-41,0.0,0.0,0.0,-1.4080034368364625e-19,<array len=36>
1765492311.1724443,5,961000000,odom,base_link,-1.908929817252268e-18,8.438225291030035e-37,0.0,0.0,0.0,0.0,1.0,<array len=36>,4.04432604707453e-19,4.9848130533558135e-42,0.0,0.0,0.0,-1.6804029442609566e-19,<array len=36>
1765492311.1935358,5,982000000,odom,base_link,-1.9155073164216124e-18,8.466427242698605e-37,0.0,0.0,0.0,0.0,1.0,<array len=36>,1.6996396450106688e-19,2.58903590382534e-41,0.0,0.0,0.0,-2.1475002542273196e-19,<array len=36>
1765492311.2116127,6,3000000,odom,base_link,-1.915438565519611e-18,8.461098226202256e-37,0.0,0.0,0.0,0.0,1.0,<array len=36>,1.5234474158652464e-19,2.284608782431828e-41,0.0,0.0,0.0,-2.4369253242455e-19,<array len=36>
1765492311.234537,6,24000000,odom,base_link,-1.924416531851898e-18,8.498126504056404e-37,0.0,0.0,0.0,0.0,1.0,<array len=36>,-1.2189987800466749e-20,3.78773482659471e-41,0.0,0.0,0.0,-2.2159883909150685e-19,<array len=36>
1765492311.2539148,6,45000000,odom,base_link,-1.9174782113954868e-18,8.460433608959494e-37,0.0,0.0,0.0,0.0,1.0,<array len=36>,4.086230051890303e-20,1.5738885982619311e-41,0.0,0.0,0.0,-2.2745799519675603e-19,<array len=36>
1765492311.2721577,6,66000000,odom,base_link,-1.9145499547206967e-18,8.444479213209506e-37,0.0,0.0,0.0,0.0,1.0,<array len=36>,1.3302342213262323e-21,1.3158253153686103e-41,0.0,0.0,0.0,-2.8812114207613693e-19,<array len=36>
1765492311.2935567,6,87000000,odom,base_link,-1.9027494559388582e-18,8.384452898142234e-37,0.0,0.0,0.0,0.0,1.0,<array len=36>,1.314090100443517e-19,-5.713184059230383e-42,0.0,0.0,0.0,-3.385604149471161e-19,<array len=36>
1765492311.3146844,6,108000000,odom,base_link,-1.8948403010509075e-18,8.346834954340378e-37,0.0,0.0,0.0,0.0,1.0,<array len=36>,1.9137480156767251e-19,-6.480498304534764e-42,0.0,0.0,0.0,-3.853533172762404e-19,<array len=36>
1765492311.3368785,6,129000000,odom,base_link,-1.8907221878609957e-18,8.346835943834419e-37,0.0,0.0,0.0,0.0,1.0,<array len=36>,2.0082645461438599e-19,1.5904251068945402e-41,0.0,0.0,0.0,-3.853533172762404e-19,<array len=36>
1765492311.3781185,6,150000000,odom,base_link,-1.894475286989594e-18,8.351138907008714e-37,0.0,0.0,0.0,0.0,1.0,<array len=36>,2.1180902233445258e-19,1.7309449684591705e-41,0.0,0.0,0.0,-3.739209165152337e-19,<array len=36>
1765492311.396207,6,171000000,odom,base_link,-1.907213710264658e-18,8.413878494172382e-37,0.0,0.0,0.0,0.0,1.0,<array len=36>,9.012598631427224e-20,4.3891766885307246e-41,0.0,0.0,0.0,-2.925416537772361e-19,<array len=36>
1765492311.4173439,6,192000000,odom,base_link,-1.9114356129958306e-18,8.429489702127631e-37,0.0,0.0,0.0,0.0,1.0,<array len=36>,-3.763934660770081e-20,3.8430547246916266e-41,0.0,0.0,0.0,-1.9609082673766887e-19,<array len=36>
1765492311.4381628,6,213000000,odom,base_link,-1.906320472696739e-18,8.398241559729158e-37,0.0,0.0,0.0,0.0,1.0,<array len=36>,-6.606943759312706e-20,1.717427593343391e-41,0.0,0.0,0.0,-1.1356054459622774e-19,<array len=36>
1765492311.4561744,6,234000000,odom,base_link,-1.8735572375444744e-18,8.232689178130388e-37,0.0,0.0,0.0,0.0,1.0,<array len=36>,1.6598200560662757e-19,-4.65342180371088e-41,0.0,0.0,0.0,-6.455908038087629e-20,<array len=36>
1765492311.4770534,6,255000000,odom,base_link,-1.84633774818006e-18,8.10274650328368e-37,0.0,0.0,0.0,0.0,1.0,<array len=36>,4.0015660278834094e-19,-6.4475667924934e-41,0.0,0.0,0.0,-4.5952393674784405e-20,<array len=36>
1765492311.498229,6,276000000,odom,base_link,-1.8397171400657305e-18,8.080308583241579e-37,0.0,0.0,0.0,0.0,1.0,<array len=36>,5.64811949194982e-19,-3.139602449090511e-41,0.0,0.0,0.0,-3.8170893916218817e-20,<array len=36>
1765492311.5164342,6,297000000,odom,base_link,-1.827425682760571e-18,8.02717427746457e-37,0.0,0.0,0.0,0.0,1.0,<array len=36>,7.015912935176074e-19,-2.743093509238395e-41,0.0,0.0,0.0,-3.782728713888251e-20,<array len=36>
1765492311.5370023,6,318000000,odom,base_link,-1.8273813273621937e-18,8.032111438333655e-37,0.0,0.0,0.0,0.0,1.0,<array len=36>,6.744647673374234e-19,-2.8571665432680034e-42,0.0,0.0,0.0,-2.078735582621333e-20,<array len=36>
1765492311.558122,6,339000000,odom,base_link,-1.8484634772758936e-18,8.132008509345939e-37,0.0,0.0,0.0,0.0,1.0,<array len=36>,2.781444890879252e-19,4.663369611348142e-41,0.0,0.0,0.0,-1.690877787416614e-20,<array len=36>
1765492311.5760314,6,360000000,odom,base_link,-1.8747986139717907e-18,8.249154727229544e-37,0.0,0.0,0.0,0.0,1.0,<array len=36>,-1.3903147343420862e-19,7.799997073505089e-41,0.0,0.0,0.0,-3.3357863824972584e-20,<array len=36>
1765492311.5973358,6,381000000,odom,base_link,-1.8829460284925882e-18,8.27372427193174e-37,0.0,0.0,0.0,0.0,1.0,<array len=36>,-2.763577436715749e-19,5.712005795769437e-41,0.0,0.0,0.0,-5.795276868667355e-20,<array len=36>
1765492311.6183763,6,402000000,odom,base_link,-1.8888281441181167e-18,8.291968483261544e-37,0.0,0.0,0.0,0.0,1.0,<array len=36>,-4.2501278316096477e-19,4.4310578888509784e-41,0.0,0.0,0.0,-6.650644316548789e-20,<array len=36>
1765492311.636356,6,423000000,odom,base_link,-1.9023056277589517e-18,8.352278110934751e-37,0.0,0.0,0.0,0.0,1.0,<array len=36>,-5.407157193932559e-19,5.456275736994105e-41,0.0,0.0,0.0,-6.327882140497797e-20,<array len=36>
1765492311.6576345,6,444000000,odom,base_link,-1.923904634940894e-18,8.457619681364895e-37,0.0,0.0,0.0,0.0,1.0,<array len=36>,-5.737202422923114e-19,7.746354608739512e-41,0.0,0.0,0.0,-5.213521938943761e-20,<array len=36>
1765492311.678856,6,465000000,odom,base_link,-1.924660710823382e-18,8.46288371188127e-37,0.0,0.0,0.0,0.0,1.0,<array len=36>,-4.1837538469751936e-19,4.94696030407637e-41,0.0,0.0,0.0,2.0475537872597534e-21,<array len=36>
1765492311.6966102,6,486000000,odom,base_link,-1.9445062346189676e-18,8.562778464897407e-37,0.0,0.0,0.0,0.0,1.0,<array len=36>,-5.231162554748951e-19,7.295077780612823e-41,0.0,0.0,0.0,6.261170043442425e-20,<array len=36>
1765492311.7185438,6,507000000,odom,base_link,-1.950731099758582e-18,8.591910983711972e-37,0.0,0.0,0.0,0.0,1.0,<array len=36>,-5.48461325947271e-19,5.673181636232348e-41,0.0,0.0,0.0,8.427392343504867e-20,<array len=36>
1765492311.739683,6,528000000,odom,base_link,-1.9645598199883453e-18,8.659993182517259e-37,0.0,0.0,0.0,0.0,1.0,<array len=36>,-5.691823945760459e-19,6.409075605019867e-41,0.0,0.0,0.0,9.120596439459136e-20,<array len=36>
1765492311.7575092,6,549000000,odom,base_link,-1.9765329234727853e-18,8.660008763055153e-37,0.0,0.0,0.0,0.0,1.0,<array len=36>,-5.711131753705977e-19,8.42953191289623e-41,0.0,0.0,0.0,9.120596439459136e-20,<array len=36>
1765492311.799909,6,570000000,odom,base_link,-1.9659010698245847e-18,8.671821008461587e-37,0.0,0.0,0.0,0.0,1.0,<array len=36>,-4.1551312255687045e-19,2.590510831241345e-41,0.0,0.0,0.0,1.0435895268479345e-19,<array len=36>
1765492311.8181534,6,591000000,odom,base_link,-1.9641225395822353e-18,8.669339093027291e-37,0.0,0.0,0.0,0.0,1.0,<array len=36>,-2.450787821207877e-19,2.0939179664381056e-41,0.0,0.0,0.0,9.178786134156189e-20,<array len=36>
1765492311.8391137,6,612000000,odom,base_link,-1.9617287903395745e-18,8.664285249230902e-37,0.0,0.0,0.0,0.0,1.0,<array len=36>,-1.674455772877539e-19,1.7370922595621396e-41,0.0,0.0,0.0,1.205919953102855e-19,<array len=36>
1765492311.8599093,6,633000000,odom,base_link,-1.981076888644176e-18,8.7611907040516e-37,0.0,0.0,0.0,0.0,1.0,<array len=36>,-1.9974688523482686e-19,5.572515311303089e-41,0.0,0.0,0.0,1.1882136573509303e-19,<array len=36>
1765492311.8838413,6,654000000,odom,base_link,-1.9932140261914486e-18,8.820283023104561e-37,0.0,0.0,0.0,0.0,1.0,<array len=36>,-2.2717674474998533e-19,5.984592027570479e-41,0.0,0.0,0.0,1.0435261791992845e-19,<array len=36>
1765492311.904991,6,675000000,odom,base_link,-2.003332350870792e-18,8.866456816084884e-37,0.0,0.0,0.0,0.0,1.0,<array len=36>,-3.500045262490459e-19,5.684000519456067e-41,0.0,0.0,0.0,9.657845960296367e-20,<array len=36>
1765492311.925877,6,696000000,odom,base_link,-2.010756909542471e-18,8.89817747755089e-37,0.0,0.0,0.0,0.0,1.0,<array len=36>,-4.199262622628284e-19,4.967629542938318e-41,0.0,0.0,0.0,8.30171527722945e-20,<array len=36>
1765492311.944373,6,717000000,odom,base_link,-2.0162272319568305e-18,8.92093383069828e-37,0.0,0.0,0.0,0.0,1.0,<array len=36>,-4.781244918199202e-19,4.2577547538205925e-41,0.0,0.0,0.0,4.6504010807471204e-20,<array len=36>
1765492311.965853,6,738000000,odom,base_link,-2.0130265716719226e-18,8.906205669708579e-37,0.0,0.0,0.0,0.0,1.0,<array len=36>,-3.1157892309082807e-19,2.422675151473565e-41,0.0,0.0,0.0,-4.7463781069349e-22,<array len=36>
1765492311.986512,6,759000000,odom,base_link,-2.0209133602009937e-18,8.951487175710672e-37,0.0,0.0,0.0,0.0,1.0,<array len=36>,-2.696993318823971e-19,3.8726908421346407e-41,0.0,0.0,0.0,-6.683106114897014e-20,<array len=36>
1765492312.004843,6,780000000,odom,base_link,-2.0451335639180856e-18,9.079755875608328e-37,0.0,0.0,0.0,0.0,1.0,<array len=36>,-3.7425215170745946e-19,7.865594380323505e-41,0.0,0.0,0.0,-1.3626812799553138e-19,<array len=36>
1765492312.0259578,6,801000000,odom,base_link,-2.053524892275735e-18,9.121938752430622e-37,0.0,0.0,0.0,0.0,1.0,<array len=36>,-3.9426454486890273e-19,6.459748817807944e-41,0.0,0.0,0.0,-1.8172506605622228e-19,<array len=36>
1765492312.047364,6,822000000,odom,base_link,-2.049820870945232e-18,9.102852626735404e-37,0.0,0.0,0.0,0.0,1.0,<array len=36>,-3.350588806893722e-19,3.3519681413724116e-41,0.0,0.0,0.0,-1.920090691440474e-19,<array len=36>
1765492312.0653393,6,843000000,odom,base_link,-2.0349183415302156e-18,9.02913726588548e-37,0.0,0.0,0.0,0.0,1.0,<array len=36>,-2.412218060306097e-19,-3.496478545247437e-42,0.0,0.0,0.0,-1.6006382943835266e-19,<array len=36>
1765492312.0863664,6,864000000,odom,base_link,-2.042134684651945e-18,9.06779358454707e-37,0.0,0.0,0.0,0.0,1.0,<array len=36>,-2.2157537198773836e-19,2.2328013536958207e-41,0.0,0.0,0.0,-7.12573238031223e-20,<array len=36>
1765492312.1075976,6,885000000,odom,base_link,-2.0510788928431808e-18,9.115552126986074e-37,0.0,0.0,0.0,0.0,1.0,<array len=36>,-1.0228026491573184e-19,3.8635222210473843e-41,0.0,0.0,0.0,5.383612795916835e-20,<array len=36>
1765492312.1257536,6,906000000,odom,base_link,-2.050275084945449e-18,9.11729785813562e-37,0.0,0.0,0.0,0.0,1.0,<array len=36>,-2.5266316804994637e-20,2.850105855423132e-41,0.0,0.0,0.0,1.5682764560063752e-19,<array len=36>
1765492312.1471562,6,927000000,odom,base_link,-2.051454092800021e-18,9.125365947476352e-37,0.0,0.0,0.0,0.0,1.0,<array len=36>,-5.15908019052821e-20,2.5888301557802774e-41,0.0,0.0,0.0,2.2506334973206614e-19,<array len=36>
1765492312.1681323,6,948000000,odom,base_link,-2.0549708633299943e-18,9.139368885297803e-37,0.0,0.0,0.0,0.0,1.0,<array len=36>,-1.8387049842417946e-19,2.685729628756819e-41,0.0,0.0,0.0,2.658641095725165e-19,<array len=36>
1765492312.1864765,6,969000000,odom,base_link,-2.0588041172563097e-18,9.13937640699611e-37,0.0,0.0,0.0,0.0,1.0,<array len=36>,-1.8120130408202205e-19,4.4777925677253426e-41,0.0,0.0,0.0,2.658641095725165e-19,<array len=36>
1765492312.2288907,6,990000000,odom,base_link,-2.028907892025369e-18,9.020344828300944e-37,0.0,0.0,0.0,0.0,1.0,<array len=36>,1.409007871388732e-19,-2.0553937390554142e-41,0.0,0.0,0.0,1.7288528724582602e-19,<array len=36>
1765492312.2472527,7,11000000,odom,base_link,-2.0277772022035514e-18,9.021142858696999e-37,0.0,0.0,0.0,0.0,1.0,<array len=36>,1.6980192312621296e-19,-1.856945259656843e-42,0.0,0.0,0.0,1.243361251509223e-19,<array len=36>
1765492312.2686229,7,32000000,odom,base_link,-2.0276071700821675e-18,9.023582544111341e-37,0.0,0.0,0.0,0.0,1.0,<array len=36>,1.9284677555211611e-19,7.887746036498324e-42,0.0,0.0,0.0,8.916140562093991e-20,<array len=36>
1765492312.2898128,7,53000000,odom,base_link,-2.0285750530236517e-18,9.030088425478073e-37,0.0,0.0,0.0,0.0,1.0,<array len=36>,2.132159798972892e-19,1.4183207212595232e-41,0.0,0.0,0.0,8.31103852121077e-20,<array len=36>
1765492312.3076763,7,74000000,odom,base_link,-2.0288698228834874e-18,9.031247194524235e-37,0.0,0.0,0.0,0.0,1.0,<array len=36>,1.5529895135856306e-19,1.5069925491245882e-41,0.0,0.0,0.0,1.274415567587235e-19,<array len=36>
1765492312.3290823,7,95000000,odom,base_link,-2.0378237196063965e-18,9.066063499631797e-37,0.0,0.0,0.0,0.0,1.0,<array len=36>,-4.3334745725444374e-20,2.8699323408820745e-41,0.0,0.0,0.0,1.7964170785029895e-19,<array len=36>
1765492312.3502872,7,116000000,odom,base_link,-2.052540715834589e-18,9.12461383064201e-37,0.0,0.0,0.0,0.0,1.0,<array len=36>,-1.6971822927150738e-19,4.479849303150831e-41,0.0,0.0,0.0,1.9228081577860396e-19,<array len=36>
1765492312.3683164,7,137000000,odom,base_link,-2.052117113258679e-18,9.118209269769341e-37,0.0,0.0,0.0,0.0,1.0,<array len=36>,-1.7863990166822424e-19,2.716039793815013e-41,0.0,0.0,0.0,2.1489241207330294e-19,<array len=36>
1765492312.3896306,7,158000000,odom,base_link,-2.063688515875943e-18,9.165384755616244e-37,0.0,0.0,0.0,0.0,1.0,<array len=36>,-2.6212022461822017e-19,3.9514283032795487e-41,0.0,0.0,0.0,2.1343071519338272e-19,<array len=36>
1765492312.4110157,7,179000000,odom,base_link,-2.0560380401648087e-18,9.13165655295464e-37,0.0,0.0,0.0,0.0,1.0,<array len=36>,-2.1157211489852188e-19,1.37008267429473e-41,0.0,0.0,0.0,2.245976676115212e-19,<array len=36>
1765492312.4292176,7,200000000,odom,base_link,-2.0705107747462284e-18,9.18926172303174e-37,0.0,0.0,0.0,0.0,1.0,<array len=36>,-2.6137496512929865e-19,3.687159663943609e-41,0.0,0.0,0.0,2.6831745458886495e-19,<array len=36>
1765492312.4507363,7,221000000,odom,base_link,-2.0750580493985757e-18,9.207975190321328e-37,0.0,0.0,0.0,0.0,1.0,<array len=36>,-2.0070155493157348e-19,3.300995585741074e-41,0.0,0.0,0.0,3.4213022359596505e-19,<array len=36>
1765492312.4717216,7,242000000,odom,base_link,-2.062876427685824e-18,9.16423221100035e-37,0.0,0.0,0.0,0.0,1.0,<array len=36>,-1.1648112575778312e-19,6.394546086079613e-42,0.0,0.0,0.0,3.7963918289373984e-19,<array len=36>
1765492312.4900773,7,263000000,odom,base_link,-2.0539817613634817e-18,9.135325145679186e-37,0.0,0.0,0.0,0.0,1.0,<array len=36>,3.944091336965446e-20,-1.0769318923932314e-42,0.0,0.0,0.0,4.2786983660127193e-19,<array len=36>
1765492312.5112512,7,284000000,odom,base_link,-2.0378761273227952e-18,9.080190257576924e-37,0.0,0.0,0.0,0.0,1.0,<array len=36>,1.1580237050175742e-19,-1.5302818977978392e-41,0.0,0.0,0.0,4.3187392979691366e-19,<array len=36>
1765492312.5325847,7,305000000,odom,base_link,-2.035774229700419e-18,9.077329807234202e-37,0.0,0.0,0.0,0.0,1.0,<array len=36>,2.506616867460924e-19,-1.919397933435821e-42,0.0,0.0,0.0,3.996385317833724e-19,<array len=36>
1765492312.5512574,7,326000000,odom,base_link,-2.0319404366678428e-18,9.067783725558294e-37,0.0,0.0,0.0,0.0,1.0,<array len=36>,3.290229096548088e-19,1.9456121040007495e-42,0.0,0.0,0.0,3.315172356414683e-19,<array len=36>
1765492312.572161,7,347000000,odom,base_link,-2.0141752991864163e-18,9.004127776036318e-37,0.0,0.0,0.0,0.0,1.0,<array len=36>,3.8730069509651096e-19,-1.763072762041478e-41,0.0,0.0,0.0,2.710682588772341e-19,<array len=36>
1765492312.5931458,7,368000000,odom,base_link,-2.0097180796871713e-18,8.989021731059819e-37,0.0,0.0,0.0,0.0,1.0,<array len=36>,3.7187219576049093e-19,-8.367448150118392e-42,0.0,0.0,0.0,2.0545579953298186e-19,<array len=36>
1765492312.6113365,7,389000000,odom,base_link,-2.0018176771733552e-18,8.989021281738617e-37,0.0,0.0,0.0,0.0,1.0,<array len=36>,3.8054709126964186e-19,4.088198604656521e-42,0.0,0.0,0.0,2.0545579953298186e-19,<array len=36>
1765492312.653807,7,410000000,odom,base_link,-1.991451231943918e-18,8.918998422886582e-37,0.0,0.0,0.0,0.0,1.0,<array len=36>,3.9110586513475315e-19,-1.478752937646138e-41,0.0,0.0,0.0,7.799987609021684e-20,<array len=36>
1765492312.671934,7,431000000,odom,base_link,-1.9915646195964295e-18,8.920536664761475e-37,0.0,0.0,0.0,0.0,1.0,<array len=36>,3.753100657697067e-19,-9.200800561784592e-43,0.0,0.0,0.0,3.451868329465497e-20,<array len=36>
1765492312.6931267,7,452000000,odom,base_link,-1.993824837595516e-18,8.927089661658784e-37,0.0,0.0,0.0,0.0,1.0,<array len=36>,2.3215713968551063e-19,7.820451782452887e-42,0.0,0.0,0.0,-2.7392741091697283e-20,<array len=36>
1765492312.714504,7,473000000,odom,base_link,-2.0021187780053583e-18,8.95663220867644e-37,0.0,0.0,0.0,0.0,1.0,<array len=36>,1.2855631372490816e-19,2.1132664612035952e-41,0.0,0.0,0.0,-9.01507075376537e-20,<array len=36>
1765492312.7336423,7,494000000,odom,base_link,-2.0272548435618783e-18,9.054876908538857e-37,0.0,0.0,0.0,0.0,1.0,<array len=36>,-1.3147933509317484e-19,5.481800785006848e-41,0.0,0.0,0.0,-1.6253574888541858e-19,<array len=36>
1765492312.7538567,7,515000000,odom,base_link,-2.059699057129803e-18,9.18043829603643e-37,0.0,0.0,0.0,0.0,1.0,<array len=36>,-4.801826035583625e-19,8.23890676393089e-41,0.0,0.0,0.0,-1.9749650847021554e-19,<array len=36>
1765492312.7751772,7,536000000,odom,base_link,-2.056840558874269e-18,9.157414866949258e-37,0.0,0.0,0.0,0.0,1.0,<array len=36>,-4.924474711488555e-19,3.757761781095462e-41,0.0,0.0,0.0,-2.388991228580068e-19,<array len=36>
1765492312.7933888,7,557000000,odom,base_link,-2.028213730962422e-18,9.030767748181846e-37,0.0,0.0,0.0,0.0,1.0,<array len=36>,-2.788997385225788e-19,-2.552220305791624e-41,0.0,0.0,0.0,-2.5874123762636306e-19,<array len=36>
